,Census year,Block ID,Property ID,Base property ID,Suburb,Trading name,Business address,Industry (ANZSIC4) description,Longitude,Latitude,location,Postcode,Google Search Link,Cuisine
0,2019,790,589462,589462,Port Melbourne,Sabre Cafe,"Part Unit 2, 42 Sabre Drive PORT MELBOURNE VIC 3207",Cafes and Restaurants,144.9063357,-37.827977,"-37.8279766213, 144.90633574660376",3207,https://www.google.com/search?q=Sabre+Cafe+Melbourne,Australian
55,2019,861,102502,102502,South Yarra,Matilda,Restaurant Ground 159 Domain Road SOUTH YARRA VIC 3141,Cafes and Restaurants,144.981452,-37.834285,"-37.83428463228749, 144.9814520532",3141,https://www.google.com/search?q=Matilda+Melbourne,Australian
56,2019,861,102503,102503,South Yarra,Botanical Hotel,169 Domain Road SOUTH YARRA VIC 3141,Cafes and Restaurants,144.9817,-37.834317,"-37.83431689595, 144.98170002123896",3141,https://www.google.com/search?q=Botanical+Hotel+Melbourne,Australian
58,2019,861,102505,102505,South Yarra,Domain Brasserie,181 Domain Road SOUTH YARRA VIC 3141,Cafes and Restaurants,144.982035,-37.834313,"-37.83431310932447, 144.9820354792",3141,https://www.google.com/search?q=Domain+Brasserie+Melbourne,Australian
60,2019,861,102506,102506,South Yarra,Baker D Chirico,Ground 183 Domain Road SOUTH YARRA VIC 3141,Bakery Product Manufacturing (Non-factory based),144.982128,-37.834326,"-37.83432571957914, 144.98212840035",3141,https://www.google.com/search?q=Baker+D+Chirico+Melbourne,Cafe
64,2019,870,102178,102178,Melbourne (Remainder),Alf's Cafe,"Shop 2-3, 55 Commercial Road MELBOURNE VIC 3004",Cafes and Restaurants,144.9828162,-37.84657,"-37.84657030085, 144.9828162329293",3004,https://www.google.com/search?q=Alf's+Cafe+Melbourne,Cafe
81,2019,1101,108847,108847,Docklands,Code 3,"Shop 1, 313 Spencer Street DOCKLANDS 3008",Cafes and Restaurants,144.9510169,-37.813807,"-37.81380704215, 144.95101685310576",3008,https://www.google.com/search?q=Code+3+Melbourne,Australian
83,2019,1101,108973,108973,Docklands,Velluto,"Shop 9, Level 1, 650 Spencer Street DOCKLANDS 3008",Cafes and Restaurants,144.952227,-37.818412,"-37.818411730415505, 144.9522268972",3008,https://www.google.com/search?q=Velluto+Melbourne,Australian
84,2019,1101,108973,108973,Docklands,In A Rush Espresso,"Shop 8, Ground , 99 Spencer Street DOCKLANDS 3008",Cafes and Restaurants,144.952227,-37.818412,"-37.818411730415505, 144.9522268972",3008,https://www.google.com/search?q=In+A+Rush+Espresso+Melbourne,Cafe
85,2019,1101,108973,108973,Docklands,Network Public Bar & Pizzeria,"Shop 4, Ground , 99 Spencer Street DOCKLANDS 3008","Pubs, Taverns and Bars",144.952227,-37.818412,"-37.818411730415505, 144.9522268972",3008,https://www.google.com/search?q=Network+Public+Bar+&+Pizzeria+Melbourne,Australian
86,2019,1101,108973,108973,Docklands,Hungry Jack's,"Shop 14, Level 1, 650 Spencer Street DOCKLANDS 3008",Cafes and Restaurants,144.952227,-37.818412,"-37.818411730415505, 144.9522268972",3008,https://www.google.com/search?q=Hungry+Jack's+Melbourne,Fast Food
87,2019,1101,108973,108973,Docklands,Red Rooster 2,"Shop 2, Level 1, 650 Spencer Street DOCKLANDS 3008",Takeaway Food Services,144.952227,-37.818412,"-37.818411730415505, 144.9522268972",3008,https://www.google.com/search?q=Red+Rooster+2+Melbourne,Fast Food
89,2019,1101,110843,110843,Docklands,Genki Express,237-261 Spencer Street DOCKLANDS 3008,Takeaway Food Services,144.950564,-37.814509,"-37.814508973578526, 144.9505641426",3008,https://www.google.com/search?q=Genki+Express+Melbourne,Japanese
90,2019,1101,110843,110843,Docklands,Coffee Rush,"Shop 310, Ground , 229 Spencer Street DOCKLANDS 3008",Cafes and Restaurants,144.950564,-37.814509,"-37.814508973578526, 144.9505641426",3008,https://www.google.com/search?q=Coffee+Rush+Melbourne,Cafe
92,2019,1101,110845,110845,Docklands,Espresso Hub,"Part Ground , 655 Collins Street DOCKLANDS 3008",Cafes and Restaurants,144.953046,-37.819686,"-37.8196859516, 144.953045720839",3008,https://www.google.com/search?q=Espresso+Hub+Melbourne,Cafe
93,2019,1102,609314,609314,Docklands,Cafe 198,"Unit 2, 198 Harbour Esplanade DOCKLANDS 3008",Cafes and Restaurants,144.944939,-37.813995,"-37.813994520151894, 144.94493865055",3008,https://www.google.com/search?q=Cafe+198+Melbourne,Cafe
95,2019,1103,558180,558180,Docklands,The Medallion Club,"Part Level 1, 140 Harbour Esplanade DOCKLANDS 3008",Cafes and Restaurants,144.9475602,-37.816742,"-37.81674197865, 144.94756024120727",3008,https://www.google.com/search?q=The+Medallion+Club+Melbourne,Australian
96,2019,1103,558180,558180,Docklands,Arena View Restaurant And Cafe,"Part Level 1, 140 Harbour Esplanade DOCKLANDS 3008",Cafes and Restaurants,144.9475602,-37.816742,"-37.81674197865, 144.94756024120727",3008,https://www.google.com/search?q=Arena+View+Restaurant+And+Cafe+Melbourne,Australian
98,2019,1103,558180,558180,Docklands,Locker Room Cafe,"Part Ground , 140 Harbour Esplanade DOCKLANDS 3008",Cafes and Restaurants,144.9475602,-37.816742,"-37.81674197865, 144.94756024120727",3008,https://www.google.com/search?q=Locker+Room+Cafe+Melbourne,Australian
99,2019,1103,669632,573400,Docklands,Yummy Hut,"Shop 202, 673-675 La Trobe Street DOCKLANDS 3008",Cafes and Restaurants,144.9474926,-37.8149,"-37.81489990395, 144.9474926474515",3008,https://www.google.com/search?q=Yummy+Hut+Melbourne,Chinese
100,2019,1103,573401,573401,Docklands,Story Coffee & Food Store,"Shop 3, 700 Bourke Street DOCKLANDS 3008",Cafes and Restaurants,144.949365,-37.817145,"-37.81714506566416, 144.94936462985",3008,https://www.google.com/search?q=Story+Coffee+&+Food+Store+Melbourne,Cafe
101,2019,1103,573401,573401,Docklands,In a Rush,"Shop 2, 700 Bourke Street DOCKLANDS 3008",Cafes and Restaurants,144.949365,-37.817145,"-37.81714506566416, 144.94936462985",3008,https://www.google.com/search?q=In+a+Rush+Melbourne,Cafe
103,2019,1103,598609,573403,Docklands,Harbour Cafe,120 Harbour Esplanade DOCKLANDS 3008,Cafes and Restaurants,144.9473509,-37.81813,"-37.81812972055, 144.94735092900342",3008,https://www.google.com/search?q=Harbour+Cafe+Melbourne,Cafe
104,2019,1103,599505,573403,Docklands,That Coffee Corner,756A Bourke Street DOCKLANDS 3008,Takeaway Food Services,144.9473509,-37.81813,"-37.81812972055, 144.94735092900342",3008,https://www.google.com/search?q=That+Coffee+Corner+Melbourne,Cafe
107,2019,1103,599505,573403,Docklands,Asian Delights Docklands,"Level , 744 Bourke Street DOCKLANDS 3008",Takeaway Food Services,144.9473509,-37.81813,"-37.81812972055, 144.94735092900342",3008,https://www.google.com/search?q=Asian+Delights+Docklands+Melbourne,Asian Fusion
109,2019,1103,599505,573403,Docklands,Teej Cafe,760 Bourke Street DOCKLANDS 3008,Takeaway Food Services,144.9473509,-37.81813,"-37.81812972055, 144.94735092900342",3008,https://www.google.com/search?q=Teej+Cafe+Melbourne,Australian
111,2019,1103,599505,573403,Docklands,Origami Sushi & Noodles,"Shop 8, Level 4, 744 Bourke Street DOCKLANDS 3008",Takeaway Food Services,144.9473509,-37.81813,"-37.81812972055, 144.94735092900342",3008,https://www.google.com/search?q=Origami+Sushi+&+Noodles+Melbourne,Japanese
112,2019,1103,589575,589575,Docklands,Broadcast Cafe,"Part Level 3, 160 Harbour Esplanade DOCKLANDS 3008",Cafes and Restaurants,144.94594,-37.815809,"-37.81580880056898, 144.9459400689",3008,https://www.google.com/search?q=Broadcast+Cafe+Melbourne,Australian
114,2019,1104,576024,576023,Docklands,Cafe Bleu,"Shop 3, Ground , 757 Bourke Street DOCKLANDS 3008",Cafes and Restaurants,144.947992,-37.819381,"-37.8193808754, 144.94799200964053",3008,https://www.google.com/search?q=Cafe+Bleu+Melbourne,Australian
116,2019,1104,598658,576023,Docklands,Nawab's Palace Dine In,20 Waterview Walk DOCKLANDS 3008,Cafes and Restaurants,144.947992,-37.819381,"-37.8193808754, 144.94799200964053",3008,https://www.google.com/search?q=Nawab's+Palace+Dine+In+Melbourne,Indian
119,2019,1105,578095,578095,Docklands,St. Brew,"Shop , Part Level 5, 700 Collins Street DOCKLANDS 3008",Cafes and Restaurants,144.9508556,-37.819489,"-37.8194886627, 144.95085562563955",3008,https://www.google.com/search?q=St.+Brew+Melbourne,Cafe
120,2019,1105,578096,578096,Docklands,Asuka Sushi,"Shop 21, Level 4, 717 Bourke Street DOCKLANDS 3008",Cafes and Restaurants,144.950245,-37.818658,"-37.81865753823454, 144.9502450218",3008,https://www.google.com/search?q=Asuka+Sushi+Melbourne,Japanese
122,2019,1105,578096,578096,Docklands,Hangar,"Shop 22, Level 4, 717 Bourke Street DOCKLANDS 3008",Cafes and Restaurants,144.950245,-37.818658,"-37.81865753823454, 144.9502450218",3008,https://www.google.com/search?q=Hangar+Melbourne,Australian
123,2019,1105,578096,578096,Docklands,Travelodge Hotel Melbourne Docklands,66 Bourke Street DOCKLANDS 3008,Accommodation,144.950245,-37.818658,"-37.81865753823454, 144.9502450218",3008,https://www.google.com/search?q=Travelodge+Hotel+Melbourne+Docklands+Melbourne,Australian
124,2019,1105,578096,578096,Docklands,Cafe Saporo @ Docklands,"Shop 5, Ground , 717 Bourke Street DOCKLANDS 3008",Cafes and Restaurants,144.950245,-37.818658,"-37.81865753823454, 144.9502450218",3008,https://www.google.com/search?q=Cafe+Saporo+@+Docklands+Melbourne,Cafe
125,2019,1105,578096,578096,Docklands,Whoop Dee Doo Cafe,"Shop 24, Level 4, 717 Bourke Street DOCKLANDS 3008",Cafes and Restaurants,144.950245,-37.818658,"-37.81865753823454, 144.9502450218",3008,https://www.google.com/search?q=Whoop+Dee+Doo+Cafe+Melbourne,Cafe
126,2019,1105,578096,578096,Docklands,Coffee Rush,"Shop 7, Ground , 717 Bourke Street DOCKLANDS 3008",Cafes and Restaurants,144.950245,-37.818658,"-37.81865753823454, 144.9502450218",3008,https://www.google.com/search?q=Coffee+Rush+Melbourne,Cafe
127,2019,1105,605909,605909,Docklands,Chiara,"Part Ground , 707 Collins Street DOCKLANDS 3008",Cafes and Restaurants,144.951138,-37.820882,"-37.82088249442511, 144.95113801219998",3008,https://www.google.com/search?q=Chiara+Melbourne,Australian
130,2019,1105,609487,609487,Docklands,Love Peace Espresso,"Part Ground , 737 Bourke Street DOCKLANDS 3008",Cafes and Restaurants,144.949069,-37.819202,"-37.81920222122055, 144.94906886145",3008,https://www.google.com/search?q=Love+Peace+Espresso+Melbourne,Cafe
131,2019,1105,609488,609488,Docklands,Platform 28,82 Bourke Street DOCKLANDS 3008,Cafes and Restaurants,144.949829,-37.81922,"-37.81922042851071, 144.94982850455",3008,https://www.google.com/search?q=Platform+28+Melbourne,Australian
133,2019,1105,628712,628712,Docklands,Hudsons Coffee Collins Square,"Tenancy 14, LwrGround , 727 Collins Street DOCKLANDS 3008",Cafes and Restaurants,144.9501181,-37.820703,"-37.82070279135, 144.95011811232098",3008,https://www.google.com/search?q=Hudsons+Coffee+Collins+Square+Melbourne,Cafe
134,2019,1105,628714,628714,Docklands,Mr Collins,"Tenancy 12, 747 Collins Street DOCKLANDS 3008",Cafes and Restaurants,144.9494995,-37.820929,"-37.8209292554, 144.94949950450552",3008,https://www.google.com/search?q=Mr+Collins+Melbourne,Australian
136,2019,1108,573414,573414,Docklands,In A Rush 800,"Tenancy 3, Part 800 Bourke Street DOCKLANDS 3008",Cafes and Restaurants,144.94508,-37.818851,"-37.81885105, 144.945079983583",3008,https://www.google.com/search?q=In+A+Rush+800+Melbourne,Cafe
137,2019,1108,573414,573414,Docklands,Watermark Docklands,"Shop 9, 800 Bourke Street DOCKLANDS 3008","Pubs, Taverns and Bars",144.94508,-37.818851,"-37.81885105, 144.945079983583",3008,https://www.google.com/search?q=Watermark+Docklands+Melbourne,Australian
138,2019,1108,573414,573414,Docklands,Sushi Wang,"Tenancy 3, Part 800 Bourke Street DOCKLANDS 3008",Cafes and Restaurants,144.94508,-37.818851,"-37.81885105, 144.945079983583",3008,https://www.google.com/search?q=Sushi+Wang+Melbourne,Japanese
140,2019,1108,573414,573414,Docklands,Rhumba's At Nab,"Shop 4, 800 Bourke Street DOCKLANDS 3008",Cafes and Restaurants,144.94508,-37.818851,"-37.81885105, 144.945079983583",3008,https://www.google.com/search?q=Rhumba's+At+Nab+Melbourne,Australian
142,2019,1108,604119,604119,Docklands,VinTam's Bakery,107-109 Victoria Harbour Promenade DOCKLANDS 3008,Cafes and Restaurants,144.9429171,-37.819352,"-37.81935239645, 144.94291705239638",3008,https://www.google.com/search?q=VinTam's+Bakery+Melbourne,Cafe
144,2019,1108,604124,604124,Docklands,Southern China Style Cuisine,"Shop 2, 818 Bourke Street DOCKLANDS 3008",Cafes and Restaurants,144.943971,-37.819266,"-37.8192660434285, 144.9439708962",3008,https://www.google.com/search?q=Southern+China+Style+Cuisine+Melbourne,Chinese
145,2019,1108,604125,604125,Docklands,Mill & Bakery at Central Pier,"Shed 9, Part  Harbour Esplanade DOCKLANDS 3008",Cafes and Restaurants,144.9436688,-37.816489,"-37.81648918185, 144.9436688253851",3008,https://www.google.com/search?q=Mill+&+Bakery+at+Central+Pier+Melbourne,Cafe
147,2019,1108,604125,604125,Docklands,Woolshed Pub,"Shed 9, Part  Harbour Esplanade DOCKLANDS 3008","Pubs, Taverns and Bars",144.9436688,-37.816489,"-37.81648918185, 144.9436688253851",3008,https://www.google.com/search?q=Woolshed+Pub+Melbourne,Australian
148,2019,1108,609479,609479,Docklands,Delhi Belly,"Shop 8, 64 Bourke Street DOCKLANDS 3008",Cafes and Restaurants,144.944156,-37.820244,"-37.82024427720189, 144.94415588535",3008,https://www.google.com/search?q=Delhi+Belly+Melbourne,Indian
149,2019,1108,609480,609480,Docklands,Tap 831,829 Bourke Street DOCKLANDS 3008,Cafes and Restaurants,144.9434599,-37.820446,"-37.8204455766, 144.94345993523592",3008,https://www.google.com/search?q=Tap+831+Melbourne,Australian
150,2019,1108,609480,609480,Docklands,D G Expresso,"Kiosk 2, 63 Bourke Street DOCKLANDS 3008",Cafes and Restaurants,144.9434599,-37.820446,"-37.8204455766, 144.94345993523592",3008,https://www.google.com/search?q=D+G+Expresso+Melbourne,Cafe
151,2019,1108,609480,609480,Docklands,Smokestak,73A-843 Bourke Street DOCKLANDS 3008,Cafes and Restaurants,144.9434599,-37.820446,"-37.8204455766, 144.94345993523592",3008,https://www.google.com/search?q=Smokestak+Melbourne,Australian
152,2019,1108,609480,609480,Docklands,Indi Hots,831B Bourke Street DOCKLANDS 3008,Cafes and Restaurants,144.9434599,-37.820446,"-37.8204455766, 144.94345993523592",3008,https://www.google.com/search?q=Indi+Hots+Melbourne,Indian
153,2019,1108,611366,611366,Docklands,Go Green Raw Foods,7 Bourke Street DOCKLANDS 3008,Cafes and Restaurants,144.9446907,-37.819948,"-37.8199481825, 144.94469069475525",3008,https://www.google.com/search?q=Go+Green+Raw+Foods+Melbourne,Vegan and Vegetarian
154,2019,1108,611367,611367,Docklands,365 Foodstore Docklands,"Shop 13, 833 Collins Street DOCKLANDS 3008",Cafes and Restaurants,144.9457013,-37.822063,"-37.82206262355, 144.94570130868357",3008,https://www.google.com/search?q=365+Foodstore+Docklands+Melbourne,Australian
155,2019,1108,611367,611367,Docklands,In A Rush 833 Collins Street,"Shop 11, 833 Collins Street DOCKLANDS 3008",Cafes and Restaurants,144.9457013,-37.822063,"-37.82206262355, 144.94570130868357",3008,https://www.google.com/search?q=In+A+Rush+833+Collins+Street+Melbourne,Cafe
157,2019,1108,611367,611367,Docklands,The Groove Train,"Shop 8, 833 Collins Street DOCKLANDS 3008",Cafes and Restaurants,144.9457013,-37.822063,"-37.82206262355, 144.94570130868357",3008,https://www.google.com/search?q=The+Groove+Train+Melbourne,Australian
158,2019,1108,613252,613252,Docklands,Street Kitchen Co,"Shop 3, Ground , 800 Collins Street DOCKLANDS 3008",Cafes and Restaurants,144.9458326,-37.821044,"-37.82104415505, 144.94583261984098",3008,https://www.google.com/search?q=Street+Kitchen+Co+Melbourne,Australian
161,2019,1108,631080,631080,Docklands,Banoi,807 Bourke Street DOCKLANDS 3008,Cafes and Restaurants,144.9450626,-37.819704,"-37.81970438935, 144.94506260846123",3008,https://www.google.com/search?q=Banoi+Melbourne,Vietnamese
163,2019,1108,631080,631080,Docklands,Cafernatics Forte,809 Bourke Street DOCKLANDS 3008,Cafes and Restaurants,144.9450626,-37.819704,"-37.81970438935, 144.94506260846123",3008,https://www.google.com/search?q=Cafernatics+Forte+Melbourne,Cafe
165,2019,1109,560001,560001,Docklands,Bhoj On Docklands,"Tenancy 4, 54 Rakaia Way DOCKLANDS 3008",Cafes and Restaurants,144.9412386,-37.814605,"-37.8146047014, 144.94123862893565",3008,https://www.google.com/search?q=Bhoj+On+Docklands+Melbourne,Indian
166,2019,1109,560001,560001,Docklands,Oscar's Table,"Tenancy 6, 50 Rakaia Way DOCKLANDS 3008",Cafes and Restaurants,144.9412386,-37.814605,"-37.8146047014, 144.94123862893565",3008,https://www.google.com/search?q=Oscar's+Table+Melbourne,Australian
169,2019,1109,573327,573327,Docklands,Steakhouse 66,66 Caravel Lane DOCKLANDS 3008,Cafes and Restaurants,144.9406746,-37.814922,"-37.8149216286, 144.94067463890494",3008,https://www.google.com/search?q=Steakhouse+66+Melbourne,Steakhouse
170,2019,1109,573327,573327,Docklands,B Club Cafe,43 Caravel Lane DOCKLANDS 3008,Cafes and Restaurants,144.9406746,-37.814922,"-37.8149216286, 144.94067463890494",3008,https://www.google.com/search?q=B+Club+Cafe+Melbourne,Cafe
171,2019,1109,573924,573924,Docklands,Berth Restaurant,"Restaurant 1, 45 Newquay Promenade DOCKLANDS 3008",Cafes and Restaurants,144.941838,-37.815148,"-37.81514807043554, 144.9418377936",3008,https://www.google.com/search?q=Berth+Restaurant+Melbourne,Australian
172,2019,1109,584059,584059,Docklands,Docklands Lotus Restaurant,Part 12-16 Newquay Promenade DOCKLANDS 3008,Cafes and Restaurants,144.943694,-37.813806,"-37.81380592420325, 144.94369352525",3008,https://www.google.com/search?q=Docklands+Lotus+Restaurant+Melbourne,Chinese
175,2019,1110,620308,593737,Docklands,Sakura Sushi Bar,"Ground , 6A Docklands Drive DOCKLANDS 3008",Cafes and Restaurants,144.9379984,-37.813288,"-37.8132875163, 144.93799836630816",3008,https://www.google.com/search?q=Sakura+Sushi+Bar+Melbourne,Japanese
177,2019,1110,620312,593737,Docklands,KFC,6 Star Crescent DOCKLANDS 3008,Takeaway Food Services,144.9379984,-37.813288,"-37.8132875163, 144.93799836630816",3008,https://www.google.com/search?q=KFC+Melbourne,Fast Food
179,2019,1110,620312,593737,Docklands,Le Cirque Fine Foods,29 Star Crescent DOCKLANDS 3008,Cafes and Restaurants,144.9379984,-37.813288,"-37.8132875163, 144.93799836630816",3008,https://www.google.com/search?q=Le+Cirque+Fine+Foods+Melbourne,Australian
180,2019,1110,620314,593737,Docklands,The Coffee Club Waterfront City,"Ground , 3 Star Circus DOCKLANDS 3008",Cafes and Restaurants,144.9379984,-37.813288,"-37.8132875163, 144.93799836630816",3008,https://www.google.com/search?q=The+Coffee+Club+Waterfront+City+Melbourne,Cafe
181,2019,1110,620314,593737,Docklands,The Groove Train,"Level 1, 3-5 Star Circus DOCKLANDS 3008",Cafes and Restaurants,144.9379984,-37.813288,"-37.8132875163, 144.93799836630816",3008,https://www.google.com/search?q=The+Groove+Train+Melbourne,Australian
182,2019,1110,620314,593737,Docklands,Gelatoria On the Docks,"Ground , 36 Star Circus DOCKLANDS 3008",Takeaway Food Services,144.9379984,-37.813288,"-37.8132875163, 144.93799836630816",3008,https://www.google.com/search?q=Gelatoria+On+the+Docks+Melbourne,Gelato
183,2019,1110,618854,618854,Docklands,Cafe Bourgeois,"Lobby , 380 Docklands Drive DOCKLANDS 3008",Cafes and Restaurants,144.9411967,-37.813085,"-37.8130848272, 144.9411967105518",3008,https://www.google.com/search?q=Cafe+Bourgeois+Melbourne,Cafe
184,2019,1112,103980,103980,Docklands,Pud Thai Vs Pho,"Unit 14, Ground , 60 Siddeley Street DOCKLANDS 3008",Cafes and Restaurants,144.9524789,-37.822884,"-37.8228836279, 144.95247888392848",3008,https://www.google.com/search?q=Pud+Thai+Vs+Pho+Melbourne,Thai
206,2020,1,611394,611394,Melbourne (CBD),Domino's Pizza,553 Flinders Street MELBOURNE VIC 3000,Takeaway Food Services,144.9565138,-37.820979,"-37.8209790437, 144.9565137522286",3000,https://www.google.com/search?q=Domino's+Pizza+Melbourne,Pizza
209,2020,4,104034,104034,Melbourne (CBD),Green Light Flinders,"Part Shop 17, Flinders Street Station Concourse MELBOURNE VIC 3000",Cafes and Restaurants,144.9657758,-37.818682,"-37.8186817777, 144.96577579893395",3000,https://www.google.com/search?q=Green+Light+Flinders+Melbourne,Cafe
210,2020,6,578320,573333,Melbourne (CBD),In a Rush,"Tenancy 3B, Ian Potter Centre: NGV Australia Federation Square 2 Swanston Street MELBOURNE VIC 3000",Cafes and Restaurants,144.9699416,-37.817778,"-37.817777826050005, 144.96994164279243",3000,https://www.google.com/search?q=In+a+Rush+Melbourne,Cafe
213,2020,6,578323,573333,Melbourne (CBD),Time Out Cafe,"Tenancy 30, Square Federation Square 2 Swanston Street MELBOURNE VIC 3000",Cafes and Restaurants,144.9699416,-37.817778,"-37.817777826050005, 144.96994164279243",3000,https://www.google.com/search?q=Time+Out+Cafe+Melbourne,Cafe
214,2020,6,578325,573333,Melbourne (CBD),Taxi Riverside,"Tenancy 27-28, Yarra Building Federation Square 2 Swanston Street MELBOURNE VIC 3000",Non-Residential Property Operators,144.9699416,-37.817778,"-37.817777826050005, 144.96994164279243",3000,https://www.google.com/search?q=Taxi+Riverside+Melbourne,Australian
215,2020,6,578325,573333,Melbourne (CBD),Mama‚Äôs Canteen,"Tenancy 26, Yarra Building Federation Square 2 Swanston Street MELBOURNE VIC 3000",Cafes and Restaurants,144.9699416,-37.817778,"-37.817777826050005, 144.96994164279243",3000,https://www.google.com/search?q=Mama‚Äôs+Canteen+Melbourne,Australian
216,2020,11,103957,103957,Melbourne (CBD),Altius Coffee Brewers,"Shop G1, Ground 517 Flinders Lane MELBOURNE VIC 3000",Takeaway Food Services,144.9564864,-37.819875,"-37.819875445799994, 144.95648638781466",3000,https://www.google.com/search?q=Altius+Coffee+Brewers+Melbourne,Cafe
217,2020,11,103989,103989,Melbourne (CBD),Shonan Kamakura,9 Katherine Place MELBOURNE VIC 3000,Cafes and Restaurants,144.956435,-37.820242,"-37.82024151763663, 144.9564351196",3000,https://www.google.com/search?q=Shonan+Kamakura+Melbourne,Japanese
220,2020,11,108971,108971,Melbourne (CBD),Holiday Inn On Flinders Melbourne,Holiday Inn on Flinders 561-585 Flinders Lane MELBOURNE VIC 3000,Accommodation,144.9551042,-37.8202,"-37.820200051650005, 144.95510422847929",3000,https://www.google.com/search?q=Holiday+Inn+On+Flinders+Melbourne+Melbourne,Australian
221,2020,12,103999,103999,Melbourne (CBD),Williams Bar Cafe,Restaurant 1 William Street MELBOURNE VIC 3000,Cafes and Restaurants,144.9595109,-37.819433,"-37.81943305785, 144.95951089698593",3000,https://www.google.com/search?q=Williams+Bar+Cafe+Melbourne,Cafe
223,2020,12,110091,110091,Melbourne (CBD),Viet Pho & Asian Cuisine,"Shop 9, 15 William Street MELBOURNE VIC 3000",Takeaway Food Services,144.959198,-37.819294,"-37.81929390624698, 144.9591980656",3000,https://www.google.com/search?q=Viet+Pho+&+Asian+Cuisine+Melbourne,Vietnamese
224,2020,12,110091,110091,Melbourne (CBD),Hudson's Coffee,"Shop 3-4, 15 William Street MELBOURNE VIC 3000",Cafes and Restaurants,144.959198,-37.819294,"-37.81929390624698, 144.9591980656",3000,https://www.google.com/search?q=Hudson's+Coffee+Melbourne,Cafe
225,2020,13,103954,103954,Melbourne (CBD),Tavistock House Cafe,"Shop 3, 387 Flinders Lane MELBOURNE VIC 3000",Cafes and Restaurants,144.961389,-37.818251,"-37.81825089919776, 144.9613890915",3000,https://www.google.com/search?q=Tavistock+House+Cafe+Melbourne,Cafe
227,2020,14,103172,103172,Melbourne (CBD),The Joint Bar,Level 1-2 35 Elizabeth Street MELBOURNE VIC 3000,"Pubs, Taverns and Bars",144.9643344,-37.817422,"-37.81742176045, 144.96433442319747",3000,https://www.google.com/search?q=The+Joint+Bar+Melbourne,Australian
228,2020,14,103950,103950,Melbourne (CBD),Pho Kingdom And Cafe,Part Ground 335 Flinders Lane MELBOURNE VIC 3000,Cafes and Restaurants,144.963226,-37.817847,"-37.81784716661798, 144.96322586075",3000,https://www.google.com/search?q=Pho+Kingdom+And+Cafe+Melbourne,Vietnamese
229,2020,14,108114,108114,Melbourne (CBD),Kenny's Bakery Cafe,"Shop 3, Ground 34 Queen Street MELBOURNE VIC 3000",Takeaway Food Services,144.9624375,-37.81799,"-37.81798972045, 144.9624374712571",3000,https://www.google.com/search?q=Kenny's+Bakery+Cafe+Melbourne,Cafe
230,2020,14,108114,108114,Melbourne (CBD),Cafe 34,"Shop 2, Ground 34 Queen Street MELBOURNE VIC 3000",Cafes and Restaurants,144.9624375,-37.81799,"-37.81798972045, 144.9624374712571",3000,https://www.google.com/search?q=Cafe+34+Melbourne,Cafe
231,2020,15,103326,103326,Melbourne (CBD),Sal's Authentic New York Pizza,"Shop 1, 289 Flinders Lane MELBOURNE VIC 3000",Cafes and Restaurants,144.9649331,-37.817187,"-37.81718670675, 144.96493307630843",3000,https://www.google.com/search?q=Sal's+Authentic+New+York+Pizza+Melbourne,Pizza
232,2020,15,103327,103327,Melbourne (CBD),KFC,"Shop 2-5, 28 Elizabeth Street MELBOURNE VIC 3000",Cafes and Restaurants,144.9648815,-37.817299,"-37.817298998, 144.96488145640564",3000,https://www.google.com/search?q=KFC+Melbourne,Fast Food
233,2020,15,103940,103940,Melbourne (CBD),Heart Baker Bun Mee,7 Scott Alley MELBOURNE VIC 3000,Takeaway Food Services,144.966303,-37.81686,"-37.816859742269926, 144.9663027514",3000,https://www.google.com/search?q=Heart+Baker+Bun+Mee+Melbourne,Vietnamese
234,2020,15,103942,103942,Melbourne (CBD),Cafe Andiamo,36-38 Degraves Street MELBOURNE VIC 3000,Cafes and Restaurants,144.965903,-37.817063,"-37.817063086367355, 144.9659026789",3000,https://www.google.com/search?q=Cafe+Andiamo+Melbourne,Australian
237,2020,15,103943,103943,Melbourne (CBD),The Quarter,27-31 Degraves Street MELBOURNE VIC 3000,Cafes and Restaurants,144.9654761,-37.817103,"-37.81710292815, 144.96547612714323",3000,https://www.google.com/search?q=The+Quarter+Melbourne,Australian
239,2020,15,103943,103943,Melbourne (CBD),Seedling Cafe,275 Flinders Lane MELBOURNE VIC 3000,Takeaway Food Services,144.9654761,-37.817103,"-37.81710292815, 144.96547612714323",3000,https://www.google.com/search?q=Seedling+Cafe+Melbourne,Cafe
240,2020,15,103944,103944,Melbourne (CBD),The Mill House Bar,"Unit 1, Basement 277 Flinders Lane MELBOURNE VIC 3000","Pubs, Taverns and Bars",144.965298,-37.817241,"-37.81724060801719, 144.96529756195",3000,https://www.google.com/search?q=The+Mill+House+Bar+Melbourne,Australian
243,2020,16,103935,103935,Melbourne (CBD),Kisume Pty Ltd,"Basement, Ground & Level 1 175-177 Flinders Lane MELBOURNE VIC 3000",Cafes and Restaurants,144.968676,-37.816183,"-37.81618262585636, 144.96867612705",3000,https://www.google.com/search?q=Kisume+Pty+Ltd+Melbourne,Japanese
246,2020,17,103920,103920,Melbourne (CBD),Trinket,Part Gnd & Bmt 87 Flinders Lane MELBOURNE VIC 3000,Cafes and Restaurants,144.971393,-37.81543,"-37.8154303940914, 144.97139265375",3000,https://www.google.com/search?q=Trinket+Melbourne,Australian
249,2020,17,103922,103922,Melbourne (CBD),Garden State Hotel,95-101 Flinders Lane MELBOURNE VIC 3000,"Pubs, Taverns and Bars",144.971099,-37.815527,"-37.8155271957592, 144.97109866785",3000,https://www.google.com/search?q=Garden+State+Hotel+Melbourne,Australian
250,2020,17,103923,103923,Melbourne (CBD),Cafe Kinetic,Ground 103 Flinders Lane MELBOURNE VIC 3000,Cafes and Restaurants,144.970964,-37.815567,"-37.81556721749156, 144.97096432815",3000,https://www.google.com/search?q=Cafe+Kinetic+Melbourne,Cafe
251,2020,17,103924,103924,Melbourne (CBD),Bullrun,Ground 107 Flinders Lane MELBOURNE VIC 3000,Cafes and Restaurants,144.970834,-37.815607,"-37.815606546589706, 144.970834384",3000,https://www.google.com/search?q=Bullrun+Melbourne,Australian
253,2020,17,103930,103930,Melbourne (CBD),Coda Bar & Restaurant,Basement 141-143 Flinders Lane MELBOURNE VIC 3000,Cafes and Restaurants,144.9698799,-37.815798,"-37.815797748853456, 144.96987987645002",3000,https://www.google.com/search?q=Coda+Bar+&+Restaurant+Melbourne,Australian
254,2020,17,104023,104023,Melbourne (CBD),Desi Dhaba,Ground 134 Flinders Street MELBOURNE VIC 3000,Cafes and Restaurants,144.9704315,-37.816299,"-37.816299007498706, 144.97043153980002",3000,https://www.google.com/search?q=Desi+Dhaba+Melbourne,Indian
256,2020,17,104027,104027,Melbourne (CBD),A Hereford Beefstouw,22 Duckboard Place MELBOURNE VIC 3000,Cafes and Restaurants,144.971371,-37.815937,"-37.81593735798856, 144.97137050245",3000,https://www.google.com/search?q=A+Hereford+Beefstouw+Melbourne,Steakhouse
259,2020,18,103915,103915,Melbourne (CBD),Cumulus Inc,Part Ground & Level 1 45 Flinders Lane MELBOURNE VIC 3000,Cafes and Restaurants,144.973135,-37.81494,"-37.814940419184126, 144.97313460425",3000,https://www.google.com/search?q=Cumulus+Inc+Melbourne,Australian
262,2020,18,104033,104033,Melbourne (CBD),Felt Restaurant,Part Ground 26 Flinders Street MELBOURNE VIC 3000,Cafes and Restaurants,144.97359,-37.815285,"-37.81528521061472, 144.9735897283",3000,https://www.google.com/search?q=Felt+Restaurant+Melbourne,Australian
263,2020,18,108975,108975,Melbourne (CBD),Axil Coffee Roasters,Ground 1 Spring Street MELBOURNE VIC 3000,Takeaway Food Services,144.9737918,-37.814993,"-37.8149934539, 144.97379180292722",3000,https://www.google.com/search?q=Axil+Coffee+Roasters+Melbourne,Cafe
264,2020,18,111021,111021,Melbourne (CBD),Tom Thumb Espresso,55 Flinders Lane MELBOURNE VIC 3000,Cafes and Restaurants,144.972835,-37.814855,"-37.81485549695003, 144.97283527125",3000,https://www.google.com/search?q=Tom+Thumb+Espresso+Melbourne,Cafe
265,2020,21,579252,579252,Melbourne (CBD),Earl Canteen,"Tenancy 5, 567 Collins Street MELBOURNE VIC 3000",Cafes and Restaurants,144.9557247,-37.81902,"-37.8190200855, 144.95572468102446",3000,https://www.google.com/search?q=Earl+Canteen+Melbourne,Australian
266,2020,21,579252,579252,Melbourne (CBD),Black Rice,"Tenancy 3, 567 Collins Street MELBOURNE VIC 3000",Cafes and Restaurants,144.9557247,-37.81902,"-37.8190200855, 144.95572468102446",3000,https://www.google.com/search?q=Black+Rice+Melbourne,Japanese
267,2020,21,579252,579252,Melbourne (CBD),Buddabah,"Tenancy 1-2, 567 Collins Street MELBOURNE VIC 3000",Cafes and Restaurants,144.9557247,-37.81902,"-37.8190200855, 144.95572468102446",3000,https://www.google.com/search?q=Buddabah+Melbourne,Australian
268,2020,21,579252,579252,Melbourne (CBD),Isshin Healthy Food,"Tenancy 6, 567 Collins Street MELBOURNE VIC 3000",Cafes and Restaurants,144.9557247,-37.81902,"-37.8190200855, 144.95572468102446",3000,https://www.google.com/search?q=Isshin+Healthy+Food+Melbourne,Japanese
270,2020,21,579252,579252,Melbourne (CBD),Sargon,Ground Foyer 567 Collins Street MELBOURNE VIC 3000,Takeaway Food Services,144.9557247,-37.81902,"-37.8190200855, 144.95572468102446",3000,https://www.google.com/search?q=Sargon+Melbourne,Australian
272,2020,22,102103,102103,Melbourne (CBD),Bluestone Wine Lounge,Part Ground 495 Collins Street MELBOURNE VIC 3000,"Pubs, Taverns and Bars",144.958117,-37.81854,"-37.81853994654838, 144.95811744965",3000,https://www.google.com/search?q=Bluestone+Wine+Lounge+Melbourne,Australian
273,2020,22,102103,102103,Melbourne (CBD),Alluvial Restaurant,Part Ground 495 Collins Street MELBOURNE VIC 3000,Cafes and Restaurants,144.958117,-37.81854,"-37.81853994654838, 144.95811744965",3000,https://www.google.com/search?q=Alluvial+Restaurant+Melbourne,Australian
274,2020,22,105397,105397,Melbourne (CBD),Rare Steakhouse,42-44 King Street MELBOURNE VIC 3000,Cafes and Restaurants,144.9573227,-37.819184,"-37.81918403029999, 144.95732265608572",3000,https://www.google.com/search?q=Rare+Steakhouse+Melbourne,Steakhouse
275,2020,22,110092,110092,Melbourne (CBD),In a Rush,Part Ground 45 William Street MELBOURNE VIC 3000,Cafes and Restaurants,144.9591395,-37.818579,"-37.81857938464999, 144.95913953984214",3000,https://www.google.com/search?q=In+a+Rush+Melbourne,Cafe
276,2020,23,102094,102094,Melbourne (CBD),The Old Chamber,Part Ground 395 Collins Street MELBOURNE VIC 3000,Cafes and Restaurants,144.961435,-37.817313,"-37.8173132351877, 144.96143454205",3000,https://www.google.com/search?q=The+Old+Chamber+Melbourne,Australian
277,2020,23,102095,102095,Melbourne (CBD),Natural History Bar & Grill,Part Ground 401 Collins Street MELBOURNE VIC 3000,Cafes and Restaurants,144.961211,-37.817379,"-37.817379248719035, 144.96121110745",3000,https://www.google.com/search?q=Natural+History+Bar+&+Grill+Melbourne,Australian
278,2020,23,106436,106436,Melbourne (CBD),Oak & Vine Restaurant,"Unit 2R, Ground 60 Market Street MELBOURNE VIC 3000",Cafes and Restaurants,144.9608187,-37.817777,"-37.817777314249994, 144.9608187218783",3000,https://www.google.com/search?q=Oak+&+Vine+Restaurant+Melbourne,Australian
282,2020,24,102091,102091,Melbourne (CBD),Little Bean Bambini,"Tenancy 9, 332-340 Flinders Lane MELBOURNE VIC 3000",Takeaway Food Services,144.962791,-37.817297,"-37.81729659038814, 144.96279108305",3000,https://www.google.com/search?q=Little+Bean+Bambini+Melbourne,Cafe
284,2020,24,102091,102091,Melbourne (CBD),Cafe Mesh,"Tenancy 2, 357 Collins Street MELBOURNE VIC 3000",Takeaway Food Services,144.962791,-37.817297,"-37.81729659038814, 144.96279108305",3000,https://www.google.com/search?q=Cafe+Mesh+Melbourne,Cafe
285,2020,24,102092,102092,Melbourne (CBD),Falcon 367,"Tenancy G5, 367 Collins Street MELBOURNE VIC 3000",Cafes and Restaurants,144.962442,-37.817282,"-37.81728184554878, 144.96244246255",3000,https://www.google.com/search?q=Falcon+367+Melbourne,Australian
286,2020,24,108113,108113,Melbourne (CBD),Shuji Sushi,"Shop 2, Ground 50 Queen Street MELBOURNE VIC 3000",Cafes and Restaurants,144.962189,-37.817586,"-37.81758582722897, 144.96218857225",3000,https://www.google.com/search?q=Shuji+Sushi+Melbourne,Japanese
287,2020,24,110763,110763,Melbourne (CBD),Mensousai Mugen,11 Bligh Place MELBOURNE VIC 3000,Cafes and Restaurants,144.9635576,-37.816839,"-37.8168391899, 144.9635575789062",3000,https://www.google.com/search?q=Mensousai+Mugen+Melbourne,Japanese
288,2020,24,110765,110765,Melbourne (CBD),Cuff Food & Wine,308 Flinders Lane MELBOURNE VIC 3000,Cafes and Restaurants,144.963914,-37.817185,"-37.81718534175, 144.9639140199169",3000,https://www.google.com/search?q=Cuff+Food+&+Wine+Melbourne,Australian
289,2020,24,110765,110765,Melbourne (CBD),Yum Yum Dumplings,306 Flinders Lane MELBOURNE VIC 3000,Cafes and Restaurants,144.963914,-37.817185,"-37.81718534175, 144.9639140199169",3000,https://www.google.com/search?q=Yum+Yum+Dumplings+Melbourne,Chinese
291,2020,25,101788,101788,Melbourne (CBD),Shandong Mama Mini,"Shop 5, Centre Place MELBOURNE VIC 3000",Takeaway Food Services,144.9654744,-37.816645,"-37.81664451891887, 144.96547439875002",3000,https://www.google.com/search?q=Shandong+Mama+Mini+Melbourne,Chinese
292,2020,25,101789,101789,Melbourne (CBD),Hell‚Äôs Kitchen,Mezzanine 20A Centre Place MELBOURNE VIC 3000,"Pubs, Taverns and Bars",144.965597,-37.816603,"-37.81660289619204, 144.96559654045",3000,https://www.google.com/search?q=Hell‚Äôs+Kitchen+Melbourne,Australian
293,2020,25,101789,101789,Melbourne (CBD),Centro Espresso Caffe,"Shop 2, 252 Flinders Lane MELBOURNE VIC 3000",Takeaway Food Services,144.965597,-37.816603,"-37.81660289619204, 144.96559654045",3000,https://www.google.com/search?q=Centro+Espresso+Caffe+Melbourne,Cafe
294,2020,25,101789,101789,Melbourne (CBD),Cafe Issus,8-10 Centre Place MELBOURNE VIC 3000,Cafes and Restaurants,144.965597,-37.816603,"-37.81660289619204, 144.96559654045",3000,https://www.google.com/search?q=Cafe+Issus+Melbourne,Cafe
295,2020,25,101789,101789,Melbourne (CBD),3 Lt Monkeys,4 Centre Place MELBOURNE VIC 3000,Takeaway Food Services,144.965597,-37.816603,"-37.81660289619204, 144.96559654045",3000,https://www.google.com/search?q=3+Lt+Monkeys+Melbourne,Australian
299,2020,25,102079,102079,Melbourne (CBD),Three Drops Espresso,"Shop 6, Ground 227 Collins Street MELBOURNE VIC 3000",Cafes and Restaurants,144.9663262,-37.81584,"-37.815840386000005, 144.9663261592912",3000,https://www.google.com/search?q=Three+Drops+Espresso+Melbourne,Cafe
300,2020,25,102081,102081,Melbourne (CBD),Ganache Chocolate Lounge,Ground 245 Collins Street MELBOURNE VIC 3000,Cafes and Restaurants,144.9658295,-37.816062,"-37.816061838299795, 144.96582950754998",3000,https://www.google.com/search?q=Ganache+Chocolate+Lounge+Melbourne,Cafe
302,2020,25,103964,103964,Melbourne (CBD),Ginger Olive Restaurant and Grill,"Shop 2, Ground 234 Flinders Lane MELBOURNE VIC 3000",Cafes and Restaurants,144.9662,-37.816422,"-37.81642162348794, 144.9661997634",3000,https://www.google.com/search?q=Ginger+Olive+Restaurant+and+Grill+Melbourne,Australian
303,2020,26,109418,109418,Melbourne (CBD),Lobby Lounge,Part 205 Collins Street MELBOURNE VIC 3000,Cafes and Restaurants,144.967425,-37.815811,"-37.81581123044113, 144.9674251999",3000,https://www.google.com/search?q=Lobby+Lounge+Melbourne,Cafe
304,2020,26,109418,109418,Melbourne (CBD),Allegro Restaurant,Part 205 Collins Street MELBOURNE VIC 3000,Cafes and Restaurants,144.967425,-37.815811,"-37.81581123044113, 144.9674251999",3000,https://www.google.com/search?q=Allegro+Restaurant+Melbourne,Australian
305,2020,27,102064,102064,Melbourne (CBD),Harley House,Basement 71 Collins Street MELBOURNE VIC 3000,"Pubs, Taverns and Bars",144.971349,-37.814344,"-37.81434422060704, 144.97134923095",3000,https://www.google.com/search?q=Harley+House+Melbourne,Australian
306,2020,27,102065,102065,Melbourne (CBD),Alexandra Club,81 Collins Street MELBOURNE VIC 3000,Clubs (Hospitality),144.971178,-37.814408,"-37.81440840355, 144.97117801063422",3000,https://www.google.com/search?q=Alexandra+Club+Melbourne,Australian
307,2020,27,102067,102067,Melbourne (CBD),Binary 101,Kiosk Lobby 101 Collins Street MELBOURNE VIC 3000,Cafes and Restaurants,144.9707729,-37.814893,"-37.81489297565, 144.97077293405562",3000,https://www.google.com/search?q=Binary+101+Melbourne,Australian
309,2020,27,541562,102071,Melbourne (CBD),Collins Kitchen,Part UprGround 121-131 Collins Street MELBOURNE VIC 3000,Cafes and Restaurants,144.969808,-37.815116,"-37.81511565165, 144.96980796645528",3000,https://www.google.com/search?q=Collins+Kitchen+Melbourne,Australian
310,2020,27,103968,103968,Melbourne (CBD),Blue Bag,43 Exhibition Street MELBOURNE VIC 3000,Cafes and Restaurants,144.9715755,-37.815017,"-37.81501688045, 144.9715754974218",3000,https://www.google.com/search?q=Blue+Bag+Melbourne,Australian
311,2020,28,102063,102060,Melbourne (CBD),Asian Pavillion,"Shop 52, 45 Collins Street MELBOURNE VIC 3000",Cafes and Restaurants,144.9726256,-37.814305,"-37.81430518125, 144.97262557265284",3000,https://www.google.com/search?q=Asian+Pavillion+Melbourne,Asian Fusion
316,2020,31,102111,102111,Melbourne (CBD),Perk Up Cafe Burger Bar,"Shop 6, 610 Collins Street MELBOURNE VIC 3000",Takeaway Food Services,144.954568,-37.81861,"-37.81860977423136, 144.95456844215",3000,https://www.google.com/search?q=Perk+Up+Cafe+Burger+Bar+Melbourne,Cafe
317,2020,31,102111,102111,Melbourne (CBD),Dumpling World,"Shop 7, 608 Collins Street MELBOURNE VIC 3000",Cafes and Restaurants,144.954568,-37.81861,"-37.81860977423136, 144.95456844215",3000,https://www.google.com/search?q=Dumpling+World+Melbourne,Chinese
318,2020,31,102113,102113,Melbourne (CBD),Don Don Japanese Restaurant,"Lot 102, Level 1 564 Collins Street MELBOURNE VIC 3000",Cafes and Restaurants,144.9558442,-37.818245,"-37.81824450365, 144.95584419736474",3000,https://www.google.com/search?q=Don+Don+Japanese+Restaurant+Melbourne,Japanese
319,2020,31,105942,105942,Melbourne (CBD),Pho n Roll,Ground 585 Little Collins Street MELBOURNE VIC 3000,Takeaway Food Services,144.9554429,-37.817867,"-37.817866889206215, 144.95544292850002",3000,https://www.google.com/search?q=Pho+n+Roll+Melbourne,Vietnamese
320,2020,31,108968,108968,Melbourne (CBD),In Zone Cafe,"Shop 3, 625 Little Collins Street MELBOURNE VIC 3000",Cafes and Restaurants,144.9543648,-37.818184,"-37.81818416285, 144.95436479768804",3000,https://www.google.com/search?q=In+Zone+Cafe+Melbourne,Cafe
321,2020,31,108968,108968,Melbourne (CBD),Piccolo Me,"Shop 7, 120 Spencer Street MELBOURNE VIC 3000",Cafes and Restaurants,144.9543648,-37.818184,"-37.81818416285, 144.95436479768804",3000,https://www.google.com/search?q=Piccolo+Me+Melbourne,Cafe
322,2020,32,102115,102115,Melbourne (CBD),Fourteen On 3,Part Level 3 530 Collins Street MELBOURNE VIC 3000,Cafes and Restaurants,144.956811,-37.817704,"-37.81770351484376, 144.9568112744",3000,https://www.google.com/search?q=Fourteen+On+3+Melbourne,Australian
323,2020,32,102116,102116,Melbourne (CBD),Feast @ 520,"Shop 1, 520 Collins Street MELBOURNE VIC 3000",Cafes and Restaurants,144.9572631,-37.817812,"-37.8178115102102, 144.95726308475002",3000,https://www.google.com/search?q=Feast+@+520+Melbourne,Australian
324,2020,32,102117,102117,Melbourne (CBD),Cafenatics On Church,"Shop 5R, 500 Collins Street MELBOURNE VIC 3000",Cafes and Restaurants,144.957476,-37.817563,"-37.81756267366522, 144.9574758159",3000,https://www.google.com/search?q=Cafenatics+On+Church+Melbourne,Cafe
326,2020,32,102117,102117,Melbourne (CBD),Henry & The Fox,"Shop 10-12, 500 Collins Street MELBOURNE VIC 3000",Cafes and Restaurants,144.957476,-37.817563,"-37.81756267366522, 144.9574758159",3000,https://www.google.com/search?q=Henry+&+The+Fox+Melbourne,Australian
328,2020,32,105940,105940,Melbourne (CBD),Saving Grace,30 Church Lane MELBOURNE VIC 3000,Cafes and Restaurants,144.9577987,-37.817197,"-37.81719662136835, 144.95779868354998",3000,https://www.google.com/search?q=Saving+Grace+Melbourne,Cafe
329,2020,32,105940,105940,Melbourne (CBD),In A Rush,Part Ground 505 Little Collins Street MELBOURNE VIC 3000,Cafes and Restaurants,144.9577987,-37.817197,"-37.81719662136835, 144.95779868354998",3000,https://www.google.com/search?q=In+A+Rush+Melbourne,Cafe
330,2020,32,110093,110093,Melbourne (CBD),Culpa Espresso,Part Ground 91 William Street MELBOURNE VIC 3000,Takeaway Food Services,144.9585188,-37.817118,"-37.8171182426, 144.95851884245724",3000,https://www.google.com/search?q=Culpa+Espresso+Melbourne,Cafe
333,2020,33,100730,100730,Melbourne (CBD),Melbourne Savage Club,The Melbourne Savage Club 12-16 Bank Place MELBOURNE VIC 3000,Clubs (Hospitality),144.9605773,-37.816545,"-37.81654512525, 144.9605773490057",3000,https://www.google.com/search?q=Melbourne+Savage+Club+Melbourne,Australian
334,2020,33,100731,100731,Melbourne (CBD),Treviso,Basement 8 Bank Place MELBOURNE VIC 3000,Cafes and Restaurants,144.960646,-37.816692,"-37.816691594, 144.96064604214507",3000,https://www.google.com/search?q=Treviso+Melbourne,Australian
336,2020,33,102123,102123,Melbourne (CBD),Kenny's Bakery Cafe,"Part Shop 3, Ground 446 Collins Street MELBOURNE VIC 3000",Takeaway Food Services,144.9594432,-37.817305,"-37.8173045178, 144.9594432475203",3000,https://www.google.com/search?q=Kenny's+Bakery+Cafe+Melbourne,Cafe
337,2020,33,102123,102123,Melbourne (CBD),Macchiato On Collins,"Unit 2, Ground 446-452 Collins Street MELBOURNE VIC 3000",Cafes and Restaurants,144.9594432,-37.817305,"-37.8173045178, 144.9594432475203",3000,https://www.google.com/search?q=Macchiato+On+Collins+Melbourne,Cafe
338,2020,33,102123,102123,Melbourne (CBD),Oli & Levi,"Unit 2A, Ground 446-452 Collins Street MELBOURNE VIC 3000",Takeaway Food Services,144.9594432,-37.817305,"-37.8173045178, 144.9594432475203",3000,https://www.google.com/search?q=Oli+&+Levi+Melbourne,Australian
339,2020,33,102124,102124,Melbourne (CBD),The Mug House,Part Ground 440 Collins Street MELBOURNE VIC 3000,Cafes and Restaurants,144.9597617,-37.817033,"-37.81703292415311, 144.95976167600003",3000,https://www.google.com/search?q=The+Mug+House+Melbourne,Australian
342,2020,33,102125,102125,Melbourne (CBD),Bon,"Shop 1, Ground 422 Collins Street MELBOURNE VIC 3000",Takeaway Food Services,144.959998,-37.8168,"-37.81679997359694, 144.959997801",3000,https://www.google.com/search?q=Bon+Melbourne,Australian
345,2020,33,105936,105936,Melbourne (CBD),Dikstein's Corner Bar,433 Little Collins Street MELBOURNE VIC 3000,Cafes and Restaurants,144.9603418,-37.816314,"-37.816313871331374, 144.96034180549998",3000,https://www.google.com/search?q=Dikstein's+Corner+Bar+Melbourne,Australian
347,2020,33,105937,105937,Melbourne (CBD),Intimo,"Shop 3-4, 439-441 Little Collins Street MELBOURNE VIC 3000",Cafes and Restaurants,144.9600973,-37.816396,"-37.816395712, 144.96009729851846",3000,https://www.google.com/search?q=Intimo+Melbourne,Australian
349,2020,33,105938,105938,Melbourne (CBD),Terrace Deli,Part Ground 459 Little Collins Street MELBOURNE VIC 3000,Cafes and Restaurants,144.95955,-37.816607,"-37.81660735525, 144.95954996381323",3000,https://www.google.com/search?q=Terrace+Deli+Melbourne,Cafe
350,2020,33,105938,105938,Melbourne (CBD),Korean Healthy Food BBQ Box,Part Ground 459 Little Collins Street MELBOURNE VIC 3000,Cafes and Restaurants,144.95955,-37.816607,"-37.81660735525, 144.95954996381323",3000,https://www.google.com/search?q=Korean+Healthy+Food+BBQ+Box+Melbourne,Korean
352,2020,34,102133,102133,Melbourne (CBD),Koi Koi,"Shop 7, 360 Collins Street MELBOURNE VIC 3000",Cafes and Restaurants,144.962171,-37.816169,"-37.81616893999539, 144.9621709685",3000,https://www.google.com/search?q=Koi+Koi+Melbourne,Japanese
355,2020,34,105929,105929,Melbourne (CBD),Seedling Cafe,349 Little Collins Street MELBOURNE VIC 3000,Cafes and Restaurants,144.963301,-37.815578,"-37.815577516659154, 144.96330054055",3000,https://www.google.com/search?q=Seedling+Cafe+Melbourne,Cafe
356,2020,34,105929,105929,Melbourne (CBD),Blahnik Corporate Catering,30 Equitable Place MELBOURNE VIC 3000,Cafes and Restaurants,144.963301,-37.815578,"-37.815577516659154, 144.96330054055",3000,https://www.google.com/search?q=Blahnik+Corporate+Catering+Melbourne,Australian
357,2020,34,105929,105929,Melbourne (CBD),Industry Beans Lt Collins,345 Little Collins Street MELBOURNE VIC 3000,Cafes and Restaurants,144.963301,-37.815578,"-37.815577516659154, 144.96330054055",3000,https://www.google.com/search?q=Industry+Beans+Lt+Collins+Melbourne,Cafe
358,2020,34,105929,105929,Melbourne (CBD),Heresy Coffee,26 Equitable Place MELBOURNE VIC 3000,Takeaway Food Services,144.963301,-37.815578,"-37.815577516659154, 144.96330054055",3000,https://www.google.com/search?q=Heresy+Coffee+Melbourne,Cafe
362,2020,34,110669,110669,Melbourne (CBD),Dodee Paidang Thai Bar And Cafe,Basement 2A 25 Equitable Place MELBOURNE VIC 3000,Cafes and Restaurants,144.962995,-37.815698,"-37.815698280289155, 144.96299531095",3000,https://www.google.com/search?q=Dodee+Paidang+Thai+Bar+And+Cafe+Melbourne,Thai
363,2020,35,102141,102141,Melbourne (CBD),Hopetoun Tea Rooms,"Shop 1-2, 282-284 Collins Street MELBOURNE VIC 3000",Cafes and Restaurants,144.9643408,-37.815528,"-37.81552770375, 144.96434075395388",3000,https://www.google.com/search?q=Hopetoun+Tea+Rooms+Melbourne,Cafe
365,2020,35,102141,102141,Melbourne (CBD),Barbarella Gelato & Wine,"Shop 22A, Block Arcade MELBOURNE VIC 3000",Cafes and Restaurants,144.9643408,-37.815528,"-37.81552770375, 144.96434075395388",3000,https://www.google.com/search?q=Barbarella+Gelato+&+Wine+Melbourne,Gelato
366,2020,35,102143,102143,Melbourne (CBD),Shujinko,"Shop 202, Level 2 260 Collins Street MELBOURNE VIC 3000",Takeaway Food Services,144.964891,-37.815381,"-37.81538053384988, 144.96489058625",3000,https://www.google.com/search?q=Shujinko+Melbourne,Japanese
367,2020,35,102143,102143,Melbourne (CBD),Caffe e Torta Espresso Bar,Kiosk 2-KG01 Ground 260 Collins Street MELBOURNE VIC 3000,Cafes and Restaurants,144.964891,-37.815381,"-37.81538053384988, 144.96489058625",3000,https://www.google.com/search?q=Caffe+e+Torta+Espresso+Bar+Melbourne,Cafe
368,2020,35,102146,102146,Melbourne (CBD),Dymocks,"Shop 1-8, LwrGround 234 Collins Street MELBOURNE VIC 3000",Newspaper and Book Retailing,144.9656502,-37.815421,"-37.8154213236, 144.96565024939986",3000,https://www.google.com/search?q=Dymocks+Melbourne,Cafe
369,2020,35,103325,103325,Melbourne (CBD),Hudsons Elizabeth Street,84-86 Elizabeth Street MELBOURNE VIC 3000,Cafes and Restaurants,144.9641821,-37.815913,"-37.8159129499, 144.96418214767343",3000,https://www.google.com/search?q=Hudsons+Elizabeth+Street+Melbourne,Cafe
371,2020,35,105928,105928,Melbourne (CBD),Brown Sugar Cafe,25 Block Place MELBOURNE VIC 3000,Cafes and Restaurants,144.964225,-37.81529,"-37.8152895302557, 144.96422535875",3000,https://www.google.com/search?q=Brown+Sugar+Cafe+Melbourne,Cafe
372,2020,35,109267,109267,Melbourne (CBD),Kafeteria,"Kiosk 1-2, 91-107 Swanston Street MELBOURNE VIC 3000",Cafes and Restaurants,144.966103,-37.815297,"-37.81529690772045, 144.9661030243",3000,https://www.google.com/search?q=Kafeteria+Melbourne,Australian
373,2020,35,109268,109268,Melbourne (CBD),Om Vegetarian,"Shop 12, 115 Swanston Street MELBOURNE VIC 3000",Cafes and Restaurants,144.965781,-37.81507,"-37.8150701808, 144.965780600956",3000,https://www.google.com/search?q=Om+Vegetarian+Melbourne,Indian
376,2020,36,102152,102152,Melbourne (CBD),Cafenatics,"Shop 8, 162 Collins Street MELBOURNE VIC 3000",Takeaway Food Services,144.967848,-37.814503,"-37.814502920035494, 144.96784765085",3000,https://www.google.com/search?q=Cafenatics+Melbourne,Cafe
377,2020,36,102152,102152,Melbourne (CBD),The George on Collins,"Shop B1, Basement 162 Collins Street MELBOURNE VIC 3000","Pubs, Taverns and Bars",144.967848,-37.814503,"-37.814502920035494, 144.96784765085",3000,https://www.google.com/search?q=The+George+on+Collins+Melbourne,Australian
379,2020,37,100398,100398,Melbourne (CBD),Rockpool Events & Catering,Gnd & Flr1 7 Alfred Place MELBOURNE VIC 3000,Cafes and Restaurants,144.96991,-37.814013,"-37.8140128186636, 144.9699104238",3000,https://www.google.com/search?q=Rockpool+Events+&+Catering+Melbourne,Australian
380,2020,37,102155,102155,Melbourne (CBD),Elements Catering,Part Gnd Lvl Foyer & Shop 3 Podium 120 Collins Street MELBOURNE VIC 3000,Cafes and Restaurants,144.9693157,-37.814,"-37.81400034895, 144.9693156901375",3000,https://www.google.com/search?q=Elements+Catering+Melbourne,Australian
382,2020,37,102157,102157,Melbourne (CBD),Garcon Paris Steakhouse,"Shop 5, Ground 90 Collins Street MELBOURNE VIC 3000",Cafes and Restaurants,144.970287,-37.814018,"-37.814017675237665, 144.9702869013",3000,https://www.google.com/search?q=Garcon+Paris+Steakhouse+Melbourne,Steakhouse
383,2020,37,105915,105915,Melbourne (CBD),Harry's At Stamford,Part Ground 121-127 Little Collins Street MELBOURNE VIC 3000,Cafes and Restaurants,144.969766,-37.813692,"-37.81369203916043, 144.96976596554998",3000,https://www.google.com/search?q=Harry's+At+Stamford+Melbourne,Australian
384,2020,38,102172,102172,Melbourne (CBD),Market Lane Coffee,Part Ground 8 Collins Street MELBOURNE VIC 3000,Cafes and Restaurants,144.973258,-37.813143,"-37.813143184965384, 144.9732576387",3000,https://www.google.com/search?q=Market+Lane+Coffee+Melbourne,Cafe
387,2020,38,105913,105913,Melbourne (CBD),Rare Steakhouse,"Shop 6, 61 Little Collins Street MELBOURNE VIC 3000",Cafes and Restaurants,144.971692,-37.813141,"-37.81314087303295, 144.97169208755",3000,https://www.google.com/search?q=Rare+Steakhouse+Melbourne,Steakhouse
388,2020,38,108272,108272,Melbourne (CBD),Liaision,Ground 22 Ridgway Place MELBOURNE VIC 3000,Cafes and Restaurants,144.972489,-37.812923,"-37.812922800699994, 144.97248903889778",3000,https://www.google.com/search?q=Liaision+Melbourne,Australian
389,2020,38,108274,108274,Melbourne (CBD),The Lyceum Club,2-18 Ridgway Place MELBOURNE VIC 3000,Clubs (Hospitality),144.972595,-37.81315,"-37.81314970940931, 144.97259506305",3000,https://www.google.com/search?q=The+Lyceum+Club+Melbourne,Australian
390,2020,38,108982,108982,Melbourne (CBD),Little Bean Blue,15 Little Collins Street MELBOURNE VIC 3000,Cafes and Restaurants,144.9731824,-37.8126,"-37.812599635, 144.97318235905587",3000,https://www.google.com/search?q=Little+Bean+Blue+Melbourne,Cafe
392,2020,38,108982,108982,Melbourne (CBD),Coffee Exchange,9-11 Little Collins Street MELBOURNE VIC 3000,Cafes and Restaurants,144.9731824,-37.8126,"-37.812599635, 144.97318235905587",3000,https://www.google.com/search?q=Coffee+Exchange+Melbourne,Cafe
393,2020,41,105299,105299,Melbourne (CBD),Saravanaa Bhavan Melbourne,Ground 1 131 King Street MELBOURNE VIC 3000,Cafes and Restaurants,144.9555049,-37.817083,"-37.8170831234, 144.9555048584872",3000,https://www.google.com/search?q=Saravanaa+Bhavan+Melbourne+Melbourne,Indian
394,2020,41,105299,105299,Melbourne (CBD),Ibis Styles Kingsgate,"Basement, Part Ground & Levels 1-6 131 King Street MELBOURNE VIC 3000",Accommodation,144.9555049,-37.817083,"-37.8170831234, 144.9555048584872",3000,https://www.google.com/search?q=Ibis+Styles+Kingsgate+Melbourne,Australian
395,2020,41,108966,108966,Melbourne (CBD),The Savoy Hotel on Little Collins,Vibe Savoy Hotel Melbourne 626-630 Little Collins Street MELBOURNE VIC 3000,Accommodation,144.95393,-37.817772,"-37.8177722277, 144.953929733017",3000,https://www.google.com/search?q=The+Savoy+Hotel+on+Little+Collins+Melbourne,Australian
397,2020,42,110095,101155,Melbourne (CBD),Spin Coffee,"Shop 11, 555 Bourke Street MELBOURNE VIC 3000",Cafes and Restaurants,144.9578138,-37.816365,"-37.81636534845, 144.95781378501067",3000,https://www.google.com/search?q=Spin+Coffee+Melbourne,Cafe
400,2020,42,110095,101155,Melbourne (CBD),Famish'd,"Shop 8, 555 Bourke Street MELBOURNE VIC 3000",Cafes and Restaurants,144.9578138,-37.816365,"-37.81636534845, 144.95781378501067",3000,https://www.google.com/search?q=Famish'd+Melbourne,Australian
401,2020,42,101157,101157,Melbourne (CBD),Axil Coffee Roasters,Part Front Ground 565 Bourke Street MELBOURNE VIC 3000,Cafes and Restaurants,144.957018,-37.816475,"-37.81647455953859, 144.9570178258",3000,https://www.google.com/search?q=Axil+Coffee+Roasters+Melbourne,Cafe
402,2020,42,101158,101158,Melbourne (CBD),Coffee Logic,Part Ground 575 Bourke Street MELBOURNE VIC 3000,Cafes and Restaurants,144.9566697,-37.816513,"-37.816513109291506, 144.95666971704998",3000,https://www.google.com/search?q=Coffee+Logic+Melbourne,Cafe
404,2020,42,105390,105390,Melbourne (CBD),Shuji Sushi,"Shop 1-2, Ground 601 Bourke Street MELBOURNE VIC 3000",Cafes and Restaurants,144.9561828,-37.816528,"-37.8165280281, 144.95618282897607",3000,https://www.google.com/search?q=Shuji+Sushi+Melbourne,Japanese
405,2020,42,105949,105949,Melbourne (CBD),Five Points,"Shop 1, 540 Little Collins Street MELBOURNE VIC 3000",Cafes and Restaurants,144.956768,-37.816967,"-37.81696667597237, 144.9567679862",3000,https://www.google.com/search?q=Five+Points+Melbourne,Australian
406,2020,42,105949,105949,Melbourne (CBD),Fjord,"Rear Shop 8, 540 Little Collins Street MELBOURNE VIC 3000",Cafes and Restaurants,144.956768,-37.816967,"-37.81696667597237, 144.9567679862",3000,https://www.google.com/search?q=Fjord+Melbourne,Cafe
407,2020,42,105949,105949,Melbourne (CBD),Mr Fusion,"Shop 2-3, 540 Little Collins Street MELBOURNE VIC 3000",Cafes and Restaurants,144.956768,-37.816967,"-37.81696667597237, 144.9567679862",3000,https://www.google.com/search?q=Mr+Fusion+Melbourne,Australian
408,2020,42,105950,105950,Melbourne (CBD),Bambini Barrista,"Shop 7, 530 Little Collins Street MELBOURNE VIC 3000",Takeaway Food Services,144.95711,-37.81688,"-37.8168797463, 144.95710995453825",3000,https://www.google.com/search?q=Bambini+Barrista+Melbourne,Cafe
410,2020,42,105950,105950,Melbourne (CBD),Pho Nung Vietnamese Restaurant,"Shop 9, 530 Little Collins Street MELBOURNE VIC 3000",Cafes and Restaurants,144.95711,-37.81688,"-37.8168797463, 144.95710995453825",3000,https://www.google.com/search?q=Pho+Nung+Vietnamese+Restaurant+Melbourne,Vietnamese
413,2020,43,108069,108069,Melbourne (CBD),The Turf Bar & Restaurant,"Unit 1, LwrGround 131 Queen Street MELBOURNE VIC 3000","Pubs, Taverns and Bars",144.9605336,-37.815495,"-37.8154953765, 144.9605335688197",3000,https://www.google.com/search?q=The+Turf+Bar+&+Restaurant+Melbourne,Australian
414,2020,43,110146,110146,Melbourne (CBD),Cocoa Bean Cafe,Part Ground 140 William Street MELBOURNE VIC 3000,Cafes and Restaurants,144.9589055,-37.816011,"-37.816010875649994, 144.95890545409205",3000,https://www.google.com/search?q=Cocoa+Bean+Cafe+Melbourne,Cafe
415,2020,44,597186,101146,Melbourne (CBD),Starbucks,Shop E24 385 Bourke Street MELBOURNE VIC 3000,Cafes and Restaurants,144.9629215,-37.814929,"-37.81492943947073, 144.96292154949998",3000,https://www.google.com/search?q=Starbucks+Melbourne,Cafe
416,2020,44,597186,101146,Melbourne (CBD),Bearded Brothers Espresso,342 Little Collins Street MELBOURNE VIC 3000,Takeaway Food Services,144.9629215,-37.814929,"-37.81492943947073, 144.96292154949998",3000,https://www.google.com/search?q=Bearded+Brothers+Espresso+Melbourne,Cafe
417,2020,44,597186,101146,Melbourne (CBD),Nosh,352 Little Collins Street MELBOURNE VIC 3000,Cafes and Restaurants,144.9629215,-37.814929,"-37.81492943947073, 144.96292154949998",3000,https://www.google.com/search?q=Nosh+Melbourne,Australian
418,2020,44,597186,101146,Melbourne (CBD),Oli & Levi,Shop B17 385 Bourke Street MELBOURNE VIC 3000,Cafes and Restaurants,144.9629215,-37.814929,"-37.81492943947073, 144.96292154949998",3000,https://www.google.com/search?q=Oli+&+Levi+Melbourne,Australian
419,2020,45,105961,105961,Melbourne (CBD),Gordons Cafe & Bar,"Shop 3-5, 306 Little Collins Street MELBOURNE VIC 3000",Cafes and Restaurants,144.964348,-37.814729,"-37.81472868260109, 144.9643479344",3000,https://www.google.com/search?q=Gordons+Cafe+&+Bar+Melbourne,Australian
420,2020,45,105961,105961,Melbourne (CBD),Union Kiosk,Kiosk 306 Little Collins Street MELBOURNE VIC 3000,Takeaway Food Services,144.964348,-37.814729,"-37.81472868260109, 144.9643479344",3000,https://www.google.com/search?q=Union+Kiosk+Melbourne,Cafe
421,2020,46,101127,101127,Melbourne (CBD),Simpsons Chips & Burgers,143 Russell Street MELBOURNE VIC 3000,Takeaway Food Services,144.967968,-37.81311,"-37.81310953331891, 144.96796810475",3000,https://www.google.com/search?q=Simpsons+Chips+&+Burgers+Melbourne,Fast Food
423,2020,46,101137,101137,Melbourne (CBD),Warra Warra,"Shop 19, 239 Bourke Street MELBOURNE VIC 3000",Cafes and Restaurants,144.96662,-37.813738,"-37.81373785326741, 144.966619556",3000,https://www.google.com/search?q=Warra+Warra+Melbourne,Australian
424,2020,46,101137,101137,Melbourne (CBD),Wagyu Fun,"Shop 26, 239 Bourke Street MELBOURNE VIC 3000",Takeaway Food Services,144.96662,-37.813738,"-37.81373785326741, 144.966619556",3000,https://www.google.com/search?q=Wagyu+Fun+Melbourne,Japanese
429,2020,47,101119,101119,Melbourne (CBD),Ishizuka,"Shop B1, Basement 139 Bourke Street MELBOURNE VIC 3000",Cafes and Restaurants,144.969167,-37.812793,"-37.81279275577653, 144.969167321",3000,https://www.google.com/search?q=Ishizuka+Melbourne,Japanese
431,2020,47,101126,101126,Melbourne (CBD),Straight Outta Saigon,Ground 138-144 Russell Street MELBOURNE VIC 3000,Cafes and Restaurants,144.968417,-37.812989,"-37.81298896430425, 144.9684169991",3000,https://www.google.com/search?q=Straight+Outta+Saigon+Melbourne,Vietnamese
432,2020,47,102197,102197,Melbourne (CBD),Oli & Levi,20 Coromandel Place MELBOURNE VIC 3000,Cafes and Restaurants,144.969255,-37.813028,"-37.8130278326532, 144.96925484175",3000,https://www.google.com/search?q=Oli+&+Levi+Melbourne,Australian
433,2020,47,602997,103597,Melbourne (CBD),Dumpling King,"Shop E4, 10 Southern Cross Lane MELBOURNE VIC 3000",Cafes and Restaurants,144.9701094,-37.812814,"-37.81281419155, 144.97010937553796",3000,https://www.google.com/search?q=Dumpling+King+Melbourne,Chinese
441,2020,47,625840,103597,Melbourne (CBD),Nashi,"Shop W3, 111 Bourke Street MELBOURNE VIC 3000",Cafes and Restaurants,144.9701094,-37.812814,"-37.81281419155, 144.97010937553796",3000,https://www.google.com/search?q=Nashi+Melbourne,Japanese
442,2020,47,108590,108590,Melbourne (CBD),Embla,122 Russell Street MELBOURNE VIC 3000,Cafes and Restaurants,144.9687145,-37.81343,"-37.813429706700006, 144.96871449991409",3000,https://www.google.com/search?q=Embla+Melbourne,Australian
445,2020,48,101111,101111,Melbourne (CBD),The Mess Hall,51 Bourke Street MELBOURNE VIC 3000,Cafes and Restaurants,144.971797,-37.812007,"-37.81200668150876, 144.9717966909",3000,https://www.google.com/search?q=The+Mess+Hall+Melbourne,Australian
474,2020,53,101176,101176,Melbourne (CBD),Cafenatics,"Shop 4, 500 Bourke Street MELBOURNE VIC 3000",Cafes and Restaurants,144.958772,-37.814943,"-37.81494328910046, 144.9587722405",3000,https://www.google.com/search?q=Cafenatics+Melbourne,Cafe
475,2020,53,101176,101176,Melbourne (CBD),Earl Canteen,"Shop 5B, 500 Bourke Street MELBOURNE VIC 3000",Cafes and Restaurants,144.958772,-37.814943,"-37.81494328910046, 144.9587722405",3000,https://www.google.com/search?q=Earl+Canteen+Melbourne,Australian
480,2020,53,101177,101177,Melbourne (CBD),Bullrun,Ground 492 Bourke Street MELBOURNE VIC 3000,Cafes and Restaurants,144.959197,-37.814999,"-37.81499855800979, 144.9591968773",3000,https://www.google.com/search?q=Bullrun+Melbourne,Australian
486,2020,53,108073,108073,Melbourne (CBD),Kenny's Bakery Cafe,Part Ground 179 Queen Street MELBOURNE VIC 3000,Cafes and Restaurants,144.9600036,-37.814519,"-37.814518916050005, 144.96000356459825",3000,https://www.google.com/search?q=Kenny's+Bakery+Cafe+Melbourne,Cafe
496,2020,54,103183,103183,Melbourne (CBD),Schnitz,203 Elizabeth Street MELBOURNE VIC 3000,Cafes and Restaurants,144.9626046,-37.813663,"-37.81366310165, 144.96260460643356",3000,https://www.google.com/search?q=Schnitz+Melbourne,Schnitzels
505,2020,54,108145,108145,Melbourne (CBD),Manchester Press,Ground 8 Rankins Lane MELBOURNE VIC 3000,Cafes and Restaurants,144.962127,-37.813874,"-37.81387425748112, 144.9621274884",3000,https://www.google.com/search?q=Manchester+Press+Melbourne,Cafe
522,2020,56,101208,101208,Melbourne (CBD),Hungry Jack's,"Ground, Bmt & Level 1 180 Bourke Street MELBOURNE VIC 3000",Cafes and Restaurants,144.967787,-37.812647,"-37.81264713794967, 144.9677865416",3000,https://www.google.com/search?q=Hungry+Jack's+Melbourne,Fast Food
531,2020,57,101217,101217,Melbourne (CBD),Flower Drum,Level 1 124-128 Bourke Street MELBOURNE VIC 3000,Cafes and Restaurants,144.969264,-37.81207,"-37.81206977061173, 144.9692644013",3000,https://www.google.com/search?q=Flower+Drum+Melbourne,Chinese
550,2020,58,108985,108985,Melbourne (CBD),City Wine Shop,159 Spring Street MELBOURNE VIC 3000,Cafes and Restaurants,144.9724654,-37.810992,"-37.81099161535, 144.97246538885273",3000,https://www.google.com/search?q=City+Wine+Shop+Melbourne,Australian
551,2020,58,108986,108986,Melbourne (CBD),The European,Ground 161 Spring Street MELBOURNE VIC 3000,Cafes and Restaurants,144.9724297,-37.810951,"-37.81095112345, 144.97242969410638",3000,https://www.google.com/search?q=The+European+Melbourne,Australian
564,2020,62,110099,110099,Melbourne (CBD),Banoi,Part 530 Little Bourke Street MELBOURNE VIC 3000,Cafes and Restaurants,144.9570652,-37.814646,"-37.81464580315, 144.95706517280095",3000,https://www.google.com/search?q=Banoi+Melbourne,Vietnamese
576,2020,64,103187,103187,Melbourne (CBD),Little Ramen Bar,346 Little Bourke Street MELBOURNE VIC 3000,Cafes and Restaurants,144.9622827,-37.813213,"-37.8132133822, 144.9622827192137",3000,https://www.google.com/search?q=Little+Ramen+Bar+Melbourne,Japanese
586,2020,64,105706,105706,Melbourne (CBD),Pho Thin,"Shop C, 389 Lonsdale Street MELBOURNE VIC 3000",Cafes and Restaurants,144.961012,-37.81288,"-37.81288037796524, 144.96101184235",3000,https://www.google.com/search?q=Pho+Thin+Melbourne,Vietnamese
587,2020,64,105706,105706,Melbourne (CBD),Top Tongue,"Shop A-B, 389 Lonsdale Street MELBOURNE VIC 3000",Cafes and Restaurants,144.961012,-37.81288,"-37.81288037796524, 144.96101184235",3000,https://www.google.com/search?q=Top+Tongue+Melbourne,Asian Fusion
589,2020,64,105869,105869,Melbourne (CBD),Khokolat Bar,Basement 43-49 Hardware Lane MELBOURNE VIC 3000,"Pubs, Taverns and Bars",144.961073,-37.813598,"-37.81359816915, 144.96107345554",3000,https://www.google.com/search?q=Khokolat+Bar+Melbourne,Cafe
590,2020,64,105869,105869,Melbourne (CBD),The Hardware Club,Ground 43-49 Hardware Lane MELBOURNE VIC 3000,Cafes and Restaurants,144.961073,-37.813598,"-37.81359816915, 144.96107345554",3000,https://www.google.com/search?q=The+Hardware+Club+Melbourne,Australian
591,2020,64,108102,108102,Melbourne (CBD),Queen Street Foodstore,"Shop 1, 200 Queen Street MELBOURNE VIC 3000",Cafes and Restaurants,144.960472,-37.813458,"-37.81345752336201, 144.96047245985",3000,https://www.google.com/search?q=Queen+Street+Foodstore+Melbourne,Cafe
593,2020,65,105698,105698,Melbourne (CBD),1000 Wat,Shop LG11 287 Lonsdale Street MELBOURNE VIC 3000,Cafes and Restaurants,144.9639289,-37.81247,"-37.81247035035, 144.96392893701363",3000,https://www.google.com/search?q=1000+Wat+Melbourne,Thai
594,2020,65,105698,105698,Melbourne (CBD),Pho Nom,Shop LG33 287 Lonsdale Street MELBOURNE VIC 3000,Cafes and Restaurants,144.9639289,-37.81247,"-37.81247035035, 144.96392893701363",3000,https://www.google.com/search?q=Pho+Nom+Melbourne,Vietnamese
595,2020,65,105698,105698,Melbourne (CBD),Bombay Bar,"Shop 353, 287 Lonsdale Street MELBOURNE VIC 3000",Takeaway Food Services,144.9639289,-37.81247,"-37.81247035035, 144.96392893701363",3000,https://www.google.com/search?q=Bombay+Bar+Melbourne,Indian
596,2020,65,105698,105698,Melbourne (CBD),Chokolait,"Shop 342, 287 Lonsdale Street MELBOURNE VIC 3000",Cafes and Restaurants,144.9639289,-37.81247,"-37.81247035035, 144.96392893701363",3000,https://www.google.com/search?q=Chokolait+Melbourne,Cafe
597,2020,65,105698,105698,Melbourne (CBD),Gyoza Gyoza,"Shop 136, 287 Lonsdale Street MELBOURNE VIC 3000",Cafes and Restaurants,144.9639289,-37.81247,"-37.81247035035, 144.96392893701363",3000,https://www.google.com/search?q=Gyoza+Gyoza+Melbourne,Japanese
598,2020,65,105698,105698,Melbourne (CBD),Nabe One,"Shop 242, 287 Lonsdale Street MELBOURNE VIC 3000",Cafes and Restaurants,144.9639289,-37.81247,"-37.81247035035, 144.96392893701363",3000,https://www.google.com/search?q=Nabe+One+Melbourne,Japanese
599,2020,65,105698,105698,Melbourne (CBD),New Shanghai,"Shop 323, 287 Lonsdale Street MELBOURNE VIC 3000",Cafes and Restaurants,144.9639289,-37.81247,"-37.81247035035, 144.96392893701363",3000,https://www.google.com/search?q=New+Shanghai+Melbourne,Chinese
600,2020,65,105875,105875,Melbourne (CBD),Sweet Canteen,"Shop 3, 8 Driver Lane MELBOURNE VIC 3000",Other Specialised Food Retailing,144.9631275,-37.812926,"-37.81292588925007, 144.96312748625002",3000,https://www.google.com/search?q=Sweet+Canteen+Melbourne,Asian
601,2020,65,105875,105875,Melbourne (CBD),Penny Blue,2 Driver Lane MELBOURNE VIC 3000,"Pubs, Taverns and Bars",144.9631275,-37.812926,"-37.81292588925007, 144.96312748625002",3000,https://www.google.com/search?q=Penny+Blue+Melbourne,Australian
602,2020,65,109290,109290,Melbourne (CBD),Tina's Noodle Kitchen,237 Swanston Street MELBOURNE VIC 3000,Cafes and Restaurants,144.9648048,-37.812447,"-37.81244687915, 144.96480476739026",3000,https://www.google.com/search?q=Tina's+Noodle+Kitchen+Melbourne,Chinese
603,2020,65,109291,109291,Melbourne (CBD),Mekong Vietnam,Ground 241 Swanston Street MELBOURNE VIC 3000,Cafes and Restaurants,144.9647769,-37.812393,"-37.81239279855, 144.9647768889876",3000,https://www.google.com/search?q=Mekong+Vietnam+Melbourne,Vietnamese
604,2020,65,109292,109292,Melbourne (CBD),Dodee Paidang Thai Street Food,Ground 245 Swanston Street MELBOURNE VIC 3000,Cafes and Restaurants,144.9647363,-37.812301,"-37.8123009589, 144.9647362546334",3000,https://www.google.com/search?q=Dodee+Paidang+Thai+Street+Food+Melbourne,Thai
605,2020,65,109292,109292,Melbourne (CBD),Radar,Level 1 243-249 Swanston Street MELBOURNE VIC 3000,Cafes and Restaurants,144.9647363,-37.812301,"-37.8123009589, 144.9647362546334",3000,https://www.google.com/search?q=Radar+Melbourne,Australian
606,2020,65,109293,109293,Melbourne (CBD),Dragon Hot Pot,251-253 Swanston Street MELBOURNE VIC 3000,Cafes and Restaurants,144.9646965,-37.812214,"-37.81221432995, 144.96469654784636",3000,https://www.google.com/search?q=Dragon+Hot+Pot+Melbourne,Chinese
608,2020,66,101783,101783,Melbourne (CBD),Supper Inn Chinese Restaurant,15-17 Celestial Avenue MELBOURNE VIC 3000,Cafes and Restaurants,144.9661302,-37.811881,"-37.81188096765, 144.96613021327727",3000,https://www.google.com/search?q=Supper+Inn+Chinese+Restaurant+Melbourne,Chinese
609,2020,66,101785,101785,Melbourne (CBD),Heyday Hong Kong Cafe,16 Celestial Avenue MELBOURNE VIC 3000,Cafes and Restaurants,144.9663716,-37.811811,"-37.8118106014, 144.9663715660603",3000,https://www.google.com/search?q=Heyday+Hong+Kong+Cafe+Melbourne,Cafe
611,2020,66,105687,105687,Melbourne (CBD),@T Ease,195 Lonsdale Street MELBOURNE VIC 3000,Cafes and Restaurants,144.96663,-37.811268,"-37.81126816481424, 144.96663043665",3000,https://www.google.com/search?q=@T+Ease+Melbourne,Cafe
615,2020,66,105889,105889,Melbourne (CBD),Bornga Melbourne,Level 1 178-190 Little Bourke Street MELBOURNE VIC 3000,Cafes and Restaurants,144.966926,-37.811856,"-37.81185619915, 144.96692568425",3000,https://www.google.com/search?q=Bornga+Melbourne+Melbourne,Korean
617,2020,66,108550,108550,Melbourne (CBD),Dragon Hot Pot,Ground 213 Russell Street MELBOURNE VIC 3000,Cafes and Restaurants,144.9672363,-37.811561,"-37.81156147555, 144.96723626336993",3000,https://www.google.com/search?q=Dragon+Hot+Pot+Melbourne,Chinese
618,2020,66,108552,108552,Melbourne (CBD),Nam Loong Restaurant,223 Russell Street MELBOURNE VIC 3000,Cafes and Restaurants,144.9671662,-37.811408,"-37.81140837375, 144.96716624913049",3000,https://www.google.com/search?q=Nam+Loong+Restaurant+Melbourne,Vietnamese
619,2020,66,108552,108552,Melbourne (CBD),Shimbashi Soba & Sake Bar,221 Russell Street MELBOURNE VIC 3000,Cafes and Restaurants,144.9671662,-37.811408,"-37.81140837375, 144.96716624913049",3000,https://www.google.com/search?q=Shimbashi+Soba+&+Sake+Bar+Melbourne,Japanese
621,2020,66,109390,109390,Melbourne (CBD),Gong De Lin,Level 3 264 Swanston Street MELBOURNE VIC 3000,Cafes and Restaurants,144.9651474,-37.811811,"-37.81181061845, 144.96514740335823",3000,https://www.google.com/search?q=Gong+De+Lin+Melbourne,Chinese
622,2020,66,109392,109392,Melbourne (CBD),Cookie,"Unit S2, Level 1 252 Swanston Street MELBOURNE VIC 3000","Pubs, Taverns and Bars",144.965271,-37.811993,"-37.81199286335, 144.965271426409",3000,https://www.google.com/search?q=Cookie+Melbourne,Australian
623,2020,66,109952,109952,Melbourne (CBD),New Kum Den Chinese Restaurant,Ground 7 Waratah Place MELBOURNE VIC 3000,Cafes and Restaurants,144.9669903,-37.811625,"-37.8116248871, 144.96699031789075",3000,https://www.google.com/search?q=New+Kum+Den+Chinese+Restaurant+Melbourne,Chinese
624,2020,66,520597,520597,Melbourne (CBD),Yang's Braised Chicken Rice,234 Little Bourke Street MELBOURNE VIC 3000,Cafes and Restaurants,144.965872,-37.812219,"-37.812218769655274, 144.9658722448",3000,https://www.google.com/search?q=Yang's+Braised+Chicken+Rice+Melbourne,Chinese
625,2020,67,102047,102047,Melbourne (CBD),Tea House At Chinatown,Ground 11-17 Cohen Place MELBOURNE VIC 3000,Cafes and Restaurants,144.9689423,-37.811038,"-37.8110384108, 144.96894231226423",3000,https://www.google.com/search?q=Tea+House+At+Chinatown+Melbourne,Chinese
627,2020,67,103606,103606,Melbourne (CBD),Curry Bowl,Ground 101 Lonsdale Street MELBOURNE VIC 3000,Takeaway Food Services,144.969451,-37.810372,"-37.810371721150005, 144.9694509853303",3000,https://www.google.com/search?q=Curry+Bowl+Melbourne,Indian
631,2020,67,105680,105680,Melbourne (CBD),Korean BBQ Buffet,141 Lonsdale Street MELBOURNE VIC 3000,Cafes and Restaurants,144.968261,-37.810786,"-37.81078634315927, 144.96826089785",3000,https://www.google.com/search?q=Korean+BBQ+Buffet+Melbourne,Korean
632,2020,67,105682,105682,Melbourne (CBD),Dainty Sichuan Food,149-155 Lonsdale Street MELBOURNE VIC 3000,Cafes and Restaurants,144.968017,-37.810907,"-37.81090659756655, 144.96801680555",3000,https://www.google.com/search?q=Dainty+Sichuan+Food+Melbourne,Chinese
633,2020,67,105895,105895,Melbourne (CBD),Shanghai Village,112-114 Little Bourke Street MELBOURNE VIC 3000,Cafes and Restaurants,144.969076,-37.811246,"-37.8112460341178, 144.9690758661",3000,https://www.google.com/search?q=Shanghai+Village+Melbourne,Chinese
634,2020,67,108582,108582,Melbourne (CBD),Shangha Street Xiaolongboa & Dumpling,146-148 Little Bourke Street MELBOURNE VIC 3000,Cafes and Restaurants,144.9679606,-37.811338,"-37.81133821925, 144.9679605734296",3000,https://www.google.com/search?q=Shangha+Street+Xiaolongboa+&+Dumpling+Melbourne,Chinese
635,2020,67,110702,110701,Melbourne (CBD),Yamato Japanese Restaurant,28 Corrs Lane MELBOURNE VIC 3000,Cafes and Restaurants,144.968153,-37.810814,"-37.81081439842686, 144.9681525514",3000,https://www.google.com/search?q=Yamato+Japanese+Restaurant+Melbourne,Japanese
636,2020,68,105668,105668,Melbourne (CBD),Master Roll Vietnam,Ground 19-21 Lonsdale Street MELBOURNE VIC 3000,Cafes and Restaurants,144.9715312,-37.809819,"-37.80981864403461, 144.97153120784998",3000,https://www.google.com/search?q=Master+Roll+Vietnam+Melbourne,Vietnamese
637,2020,68,105672,105672,Melbourne (CBD),Bobby's Coffee,Rear 57 Lonsdale Street MELBOURNE VIC 3000,Cafes and Restaurants,144.970714,-37.810057,"-37.810057226852095, 144.97071442655",3000,https://www.google.com/search?q=Bobby's+Coffee+Melbourne,Cafe
639,2020,71,106028,106028,Melbourne (CBD),Gogi Matcha,595-599 Little Lonsdale Street MELBOURNE VIC 3000,Cafes and Restaurants,144.9538306,-37.81381,"-37.8138095791, 144.95383064417518",3000,https://www.google.com/search?q=Gogi+Matcha+Melbourne,Korean
640,2020,72,105375,105375,Melbourne (CBD),Dosirock,"Shop 1, 280 King Street MELBOURNE VIC 3000",Cafes and Restaurants,144.9548242,-37.813499,"-37.81349891145, 144.95482420112944",3000,https://www.google.com/search?q=Dosirock+Melbourne,Korean
641,2020,72,105727,105727,Melbourne (CBD),Peddler Tuck Shop CBD,528 Lonsdale Street MELBOURNE VIC 3000,Takeaway Food Services,144.9564218,-37.813657,"-37.81365703285, 144.95642184692633",3000,https://www.google.com/search?q=Peddler+Tuck+Shop+CBD+Melbourne,Cafe
643,2020,72,106023,106023,Melbourne (CBD),Delicious Asian Cuisines & Pho,"Shop 2, 551-555 Little Lonsdale Street MELBOURNE VIC 3000",Cafes and Restaurants,144.9555651,-37.813296,"-37.81329562136028, 144.95556507794998",3000,https://www.google.com/search?q=Delicious+Asian+Cuisines+&+Pho+Melbourne,Vietnamese
644,2020,72,110103,110103,Melbourne (CBD),William St Deli,Part Ground 255 William Street MELBOURNE VIC 3000,Cafes and Restaurants,144.9566983,-37.813179,"-37.81317901995, 144.95669828260998",3000,https://www.google.com/search?q=William+St+Deli+Melbourne,Cafe
645,2020,72,105726,110707,Melbourne (CBD),Suda,"Shop C2, 10C Healeys Lane MELBOURNE VIC 3000",Cafes and Restaurants,144.9560016,-37.813463,"-37.81346261063083, 144.95600158025002",3000,https://www.google.com/search?q=Suda+Melbourne,Thai
646,2020,72,110708,110707,Melbourne (CBD),Back Pocket Little Lonsdale,"Shop 3, 535 Little Lonsdale Street MELBOURNE VIC 3000",Cafes and Restaurants,144.9560016,-37.813463,"-37.81346261063083, 144.95600158025002",3000,https://www.google.com/search?q=Back+Pocket+Little+Lonsdale+Melbourne,Cafe
647,2020,73,559300,559300,Melbourne (CBD),Octane Espresso,Forecourt 250 William Street MELBOURNE VIC 3000,Takeaway Food Services,144.9576562,-37.813018,"-37.81301785135, 144.95765619772197",3000,https://www.google.com/search?q=Octane+Espresso+Melbourne,Cafe
648,2020,73,559301,559301,Melbourne (CBD),The Firm Espresso Bar,Ground 460 Lonsdale Street MELBOURNE VIC 3000,Cafes and Restaurants,144.958351,-37.813057,"-37.8130565380355, 144.95835075315",3000,https://www.google.com/search?q=The+Firm+Espresso+Bar+Melbourne,Cafe
649,2020,74,103200,103200,Melbourne (CBD),Mankeumi,Level 1 287-289 Elizabeth Street MELBOURNE VIC 3000,Cafes and Restaurants,144.9616347,-37.811909,"-37.811909456950005, 144.96163473069288",3000,https://www.google.com/search?q=Mankeumi+Melbourne,Korean
650,2020,74,103202,103202,Melbourne (CBD),Dong Ting,295-297 Elizabeth Street MELBOURNE VIC 3000,Cafes and Restaurants,144.961673,-37.811713,"-37.81171285475, 144.96167303971083",3000,https://www.google.com/search?q=Dong+Ting+Melbourne,Chinese
651,2020,74,103206,103206,Melbourne (CBD),Pepper Lunch,Ground 307-311 Elizabeth Street MELBOURNE VIC 3000,Cafes and Restaurants,144.961561,-37.811469,"-37.8114685386, 144.9615610497648",3000,https://www.google.com/search?q=Pepper+Lunch+Melbourne,Japanese
652,2020,74,104661,104661,Melbourne (CBD),Hadware Street Cafe,119 Hardware Street MELBOURNE VIC 3000,Takeaway Food Services,144.9603937,-37.812107,"-37.812107125964275, 144.96039374129998",3000,https://www.google.com/search?q=Hadware+Street+Cafe+Melbourne,Cafe
653,2020,74,104661,104661,Melbourne (CBD),White Mojo,115 Hardware Street MELBOURNE VIC 3000,Cafes and Restaurants,144.9603937,-37.812107,"-37.812107125964275, 144.96039374129998",3000,https://www.google.com/search?q=White+Mojo+Melbourne,Cafe
654,2020,74,104661,104661,Melbourne (CBD),Hardware Societe,123 Hardware Street MELBOURNE VIC 3000,Cafes and Restaurants,144.9603937,-37.812107,"-37.812107125964275, 144.96039374129998",3000,https://www.google.com/search?q=Hardware+Societe+Melbourne,Cafe
655,2020,74,104664,104664,Melbourne (CBD),Ten Square Cafe,118-120 Hardware Street MELBOURNE VIC 3000,Cafes and Restaurants,144.960703,-37.811947,"-37.81194747545, 144.96070299637427",3000,https://www.google.com/search?q=Ten+Square+Cafe+Melbourne,Cafe
656,2020,74,105738,105738,Melbourne (CBD),Yami Yami,"Shop 3, 398 Lonsdale Street MELBOURNE VIC 3000",Cafes and Restaurants,144.960531,-37.812409,"-37.81240856448699, 144.96053073105",3000,https://www.google.com/search?q=Yami+Yami+Melbourne,Korean
657,2020,74,105738,105738,Melbourne (CBD),Hash Specialty Coffee,113 Hardware Street MELBOURNE VIC 3000,Cafes and Restaurants,144.960531,-37.812409,"-37.81240856448699, 144.96053073105",3000,https://www.google.com/search?q=Hash+Specialty+Coffee+Melbourne,Cafe
658,2020,74,105742,105742,Melbourne (CBD),Hakoya Izakaya,Ground 364 Lonsdale Street MELBOURNE VIC 3000,Cafes and Restaurants,144.9614727,-37.81223,"-37.81222994453485, 144.96147267589998",3000,https://www.google.com/search?q=Hakoya+Izakaya+Melbourne,Japanese
660,2020,74,105743,105743,Melbourne (CBD),Tang Huo Kung Fu,277 Elizabeth Street MELBOURNE VIC 3000,Cafes and Restaurants,144.9617891,-37.812143,"-37.81214254855, 144.96178912148196",3000,https://www.google.com/search?q=Tang+Huo+Kung+Fu+Melbourne,Chinese
661,2020,74,105743,105743,Melbourne (CBD),Noodle Villa,279-281 Elizabeth Street MELBOURNE VIC 3000,Cafes and Restaurants,144.9617891,-37.812143,"-37.81214254855, 144.96178912148196",3000,https://www.google.com/search?q=Noodle+Villa+Melbourne,Chinese
662,2020,74,106017,106017,Melbourne (CBD),Gypsy & Pig,"Shop 3, 391 Little Lonsdale Street MELBOURNE VIC 3000",Cafes and Restaurants,144.960341,-37.811874,"-37.811874044517, 144.9603413046",3000,https://www.google.com/search?q=Gypsy+&+Pig+Melbourne,Cafe
663,2020,76,589841,105749,Melbourne (CBD),Hakata Gensuke QV,200 Lonsdale Street MELBOURNE VIC 3000,Cafes and Restaurants,144.965725,-37.810679,"-37.81067861705, 144.965725053002",3000,https://www.google.com/search?q=Hakata+Gensuke+QV+Melbourne,Japanese
664,2020,76,589841,105749,Melbourne (CBD),Max Brenner Chocolates,25-27 QV Square MELBOURNE VIC 3000,Cafes and Restaurants,144.965725,-37.810679,"-37.81067861705, 144.965725053002",3000,https://www.google.com/search?q=Max+Brenner+Chocolates+Melbourne,Cafe
668,2020,76,589841,105749,Melbourne (CBD),Little Sichuan,27-33 Red Cape Lane MELBOURNE VIC 3000,Cafes and Restaurants,144.965725,-37.810679,"-37.81067861705, 144.965725053002",3000,https://www.google.com/search?q=Little+Sichuan+Melbourne,Chinese
669,2020,76,589841,105749,Melbourne (CBD),Cafenatics QV,35 Red Cape Lane MELBOURNE VIC 3000,Cafes and Restaurants,144.965725,-37.810679,"-37.81067861705, 144.965725053002",3000,https://www.google.com/search?q=Cafenatics+QV+Melbourne,Cafe
670,2021,103,554417,554417,Melbourne (CBD),Diner On Franklyn,245 Franklin Street MELBOURNE VIC 3000,Cafes and Restaurants,144.956641,-37.809696,"-37.809696033454486, 144.95664109005",3000,https://www.google.com/search?q=Diner+On+Franklyn+Melbourne,Australian
672,2021,103,621414,621414,Melbourne (CBD),Bentoman,3 Frederick Way MELBOURNE VIC 3000,Cafes and Restaurants,144.9565992,-37.810173,"-37.8101725465, 144.95659918727557",3000,https://www.google.com/search?q=Bentoman+Melbourne,Japanese
673,2021,104,100167,100167,Melbourne (CBD),Cupanda Kitchen,106 A'Beckett Street MELBOURNE VIC 3000,Cafes and Restaurants,144.9600143,-37.809127,"-37.80912726440698, 144.96001426700002",3000,https://www.google.com/search?q=Cupanda+Kitchen+Melbourne,Chinese
674,2021,104,103219,103219,Melbourne (CBD),Top Tea,"Shop 2, 413-417 Elizabeth Street MELBOURNE VIC 3000",Cafes and Restaurants,144.9605218,-37.809187,"-37.80918733525, 144.9605217744215",3000,https://www.google.com/search?q=Top+Tea+Melbourne,Chinese
675,2021,104,103220,103220,Melbourne (CBD),Biang Biang Elizabeth,419 Elizabeth Street MELBOURNE VIC 3000,Cafes and Restaurants,144.9604895,-37.809116,"-37.8091159296, 144.9604894890179",3000,https://www.google.com/search?q=Biang+Biang+Elizabeth+Melbourne,Chinese
676,2021,104,103223,103223,Melbourne (CBD),Shujinko Ramen,427 Elizabeth Street MELBOURNE VIC 3000,Cafes and Restaurants,144.9604257,-37.808975,"-37.808975126899995, 144.9604256557888",3000,https://www.google.com/search?q=Shujinko+Ramen+Melbourne,Japanese
677,2021,104,103225,103225,Melbourne (CBD),Dragon Hot Pot,433 Elizabeth Street MELBOURNE VIC 3000,Cafes and Restaurants,144.9603435,-37.808859,"-37.8088585204, 144.9603435131594",3000,https://www.google.com/search?q=Dragon+Hot+Pot+Melbourne,Chinese
678,2021,104,103225,103225,Melbourne (CBD),Rose Garden Barbecue Shop,435 Elizabeth Street MELBOURNE VIC 3000,Cafes and Restaurants,144.9603435,-37.808859,"-37.8088585204, 144.9603435131594",3000,https://www.google.com/search?q=Rose+Garden+Barbecue+Shop+Melbourne,Chinese
679,2021,104,103226,103226,Melbourne (CBD),Menya Ramen,Ground 437-439 Elizabeth Street MELBOURNE VIC 3000,Cafes and Restaurants,144.9602381,-37.80881,"-37.80880976685, 144.96023808784668",3000,https://www.google.com/search?q=Menya+Ramen+Melbourne,Japanese
681,2021,104,104084,104084,Melbourne (CBD),Ichigo,"Shop 3, 155 Franklin Street MELBOURNE VIC 3000",Cafes and Restaurants,144.959569,-37.809043,"-37.809043487817426, 144.95956878425",3000,https://www.google.com/search?q=Ichigo+Melbourne,Japanese
682,2021,104,104084,104084,Melbourne (CBD),Yoi,"Shop G1, 163 Franklin Street MELBOURNE VIC 3000",Cafes and Restaurants,144.959569,-37.809043,"-37.809043487817426, 144.95956878425",3000,https://www.google.com/search?q=Yoi+Melbourne,Japanese
684,2021,104,104084,104084,Melbourne (CBD),Mansae Korean BBQ & Bar,130 A'Beckett Street MELBOURNE VIC 3000,Cafes and Restaurants,144.959569,-37.809043,"-37.809043487817426, 144.95956878425",3000,https://www.google.com/search?q=Mansae+Korean+BBQ+&+Bar+Melbourne,Korean
685,2021,104,104084,104084,Melbourne (CBD),Hongkongboi,"Shop 2, 155 Franklin Street MELBOURNE VIC 3000",Takeaway Food Services,144.959569,-37.809043,"-37.809043487817426, 144.95956878425",3000,https://www.google.com/search?q=Hongkongboi+Melbourne,Cafe
689,2021,105,109318,109318,Melbourne (CBD),The Vine Coffee Roasters,"Tenancy 11, Level 2 435-457 Swanston Street MELBOURNE VIC 3000",Cafes and Restaurants,144.962689,-37.808264,"-37.808263981964075, 144.9626891397",3000,https://www.google.com/search?q=The+Vine+Coffee+Roasters+Melbourne,Cafe
690,2021,113,110671,108118,Melbourne (CBD),Alex Canteen,157-159 Victoria Street MELBOURNE VIC 3000,Cafes and Restaurants,144.957627,-37.807833,"-37.807832574221266, 144.9576272223",3000,https://www.google.com/search?q=Alex+Canteen+Melbourne,Cafe
692,2021,113,110673,108118,Melbourne (CBD),Market Lane Coffee,83-85 Victoria Street MELBOURNE VIC 3000,Cafes and Restaurants,144.957627,-37.807833,"-37.807832574221266, 144.9576272223",3000,https://www.google.com/search?q=Market+Lane+Coffee+Melbourne,Cafe
693,2021,113,110673,108118,Melbourne (CBD),Market Espresso & Trolley Hire,Trolley Hire Queen Victoria Market Victoria Street MELBOURNE VIC 3000,Cafes and Restaurants,144.957627,-37.807833,"-37.807832574221266, 144.9576272223",3000,https://www.google.com/search?q=Market+Espresso+&+Trolley+Hire+Melbourne,Cafe
695,2021,113,110679,108118,Melbourne (CBD),South Melbourne Dim Sims Pty Ltd,"Stall 23, Shed F Queen Victoria Market 66 Peel Street MELBOURNE VIC 3000",Takeaway Food Services,144.957627,-37.807833,"-37.807832574221266, 144.9576272223",3000,https://www.google.com/search?q=South+Melbourne+Dim+Sims+Pty+Ltd+Melbourne,Chinese
697,2021,113,110679,108118,Melbourne (CBD),Tribel Cafe,"Stall 20-21, Shed F Queen Victoria Market 66 Peel Street MELBOURNE VIC 3000",Cafes and Restaurants,144.957627,-37.807833,"-37.807832574221266, 144.9576272223",3000,https://www.google.com/search?q=Tribel+Cafe+Melbourne,Cafe
699,2021,113,110679,108118,Melbourne (CBD),Romeo Takeaway Cafe,"Stall 7-8, Shed F Queen Victoria Market 66 Peel Street MELBOURNE VIC 3000",Takeaway Food Services,144.957627,-37.807833,"-37.807832574221266, 144.9576272223",3000,https://www.google.com/search?q=Romeo+Takeaway+Cafe+Melbourne,Cafe
701,2021,113,110690,108118,Melbourne (CBD),Meet Sando,507 Elizabeth Street MELBOURNE VIC 3000,Cafes and Restaurants,144.957627,-37.807833,"-37.807832574221266, 144.9576272223",3000,https://www.google.com/search?q=Meet+Sando+Melbourne,Japanese
703,2021,114,103235,103235,Melbourne (CBD),McDonalds,501-503 Elizabeth Street MELBOURNE VIC 3000,Cafes and Restaurants,144.9595541,-37.807352,"-37.8073524639, 144.95955412399587",3000,https://www.google.com/search?q=McDonalds+Melbourne,Fast Food
705,2021,114,511518,511518,Melbourne (CBD),DDDumplings,471 Elizabeth Street MELBOURNE VIC 3000,Cafes and Restaurants,144.9599523,-37.807941,"-37.80794068975, 144.95995230458294",3000,https://www.google.com/search?q=DDDumplings+Melbourne,Chinese
706,2021,115,103300,103300,Melbourne (CBD),Chef David,"Shop 102, Level 1 458 Elizabeth Street MELBOURNE VIC 3000",Cafes and Restaurants,144.960624,-37.807837,"-37.80783716475, 144.96062400307895",3000,https://www.google.com/search?q=Chef+David+Melbourne,Chinese
707,2021,115,103300,103300,Melbourne (CBD),David's Master Pot,Gnd & Mezz 470 Elizabeth Street MELBOURNE VIC 3000,Cafes and Restaurants,144.960624,-37.807837,"-37.80783716475, 144.96062400307895",3000,https://www.google.com/search?q=David's+Master+Pot+Melbourne,Chinese
708,2021,115,104103,104103,Melbourne (CBD),Captain Melville,Mac's Hotel 34-38 Franklin Street MELBOURNE VIC 3000,"Pubs, Taverns and Bars",144.9616202,-37.807519,"-37.8075189651329, 144.96162023070002",3000,https://www.google.com/search?q=Captain+Melville+Melbourne,Australian
709,2021,115,604778,587480,Melbourne (CBD),Pork Belly House Melbourne,479 Swanston Street MELBOURNE VIC 3000,Cafes and Restaurants,144.9620896,-37.807289,"-37.80728891305, 144.9620895650038",3000,https://www.google.com/search?q=Pork+Belly+House+Melbourne+Melbourne,Korean
710,2021,131,103978,111287,Docklands,Degani Bakery Cafe,"Shop 1, Ground 18-38 Siddeley Street DOCKLANDS VIC 3008",Cafes and Restaurants,144.9537825,-37.822581,"-37.8225810113, 144.9537825432986",3008,https://www.google.com/search?q=Degani+Bakery+Cafe+Melbourne,Cafe
711,2021,203,103123,103123,Carlton,Cafe Sua Da,258 Elgin Street CARLTON VIC 3053,Cafes and Restaurants,144.9655339,-37.796707,"-37.79670704207427, 144.96553387810002",3053,https://www.google.com/search?q=Cafe+Sua+Da+Melbourne,Cafe
712,2021,204,109359,109359,Carlton,The Longing Flavour,804 Swanston Street CARLTON VIC 3053,Cafes and Restaurants,144.9651742,-37.797834,"-37.79783367185, 144.96517421568868",3053,https://www.google.com/search?q=The+Longing+Flavour+Melbourne,Chinese
714,2021,206,106113,106113,Carlton,Dumpling ADA,88 Grattan Street CARLTON VIC 3053,Cafes and Restaurants,144.9665529,-37.800458,"-37.8004575147, 144.96655286235642",3053,https://www.google.com/search?q=Dumpling+ADA+Melbourne,Chinese
715,2021,206,106120,106120,Carlton,Cafe Corretto,225-229 Lygon Street CARLTON VIC 3053,Cafes and Restaurants,144.966741,-37.800046,"-37.8000456119, 144.9667409809706",3053,https://www.google.com/search?q=Cafe+Corretto+Melbourne,Cafe
720,2021,207,106149,106149,Carlton,Milk The Cow,323 Lygon Street CARLTON VIC 3053,Cafes and Restaurants,144.9671258,-37.797774,"-37.79777441345, 144.9671257957682",3053,https://www.google.com/search?q=Milk+The+Cow+Melbourne,Cafe
723,2021,207,106153,106153,Carlton,Jimmy Watsons,331-335 Lygon Street CARLTON VIC 3053,Cafes and Restaurants,144.9671719,-37.797511,"-37.79751106105, 144.9671719070076",3053,https://www.google.com/search?q=Jimmy+Watsons+Melbourne,Australian
724,2021,212,111336,106170,Carlton,Chong Quing,"Unit 1011, 570 Lygon Street CARLTON VIC 3053",Cafes and Restaurants,144.9690497,-37.79314,"-37.793139871315645, 144.96904972775002",3053,https://www.google.com/search?q=Chong+Quing+Melbourne,Chinese
725,2021,212,633373,633373,Carlton,Rathdowne & Reeves Cafe,Part Ground 497-513 Rathdowne Street CARLTON VIC 3053,Cafes and Restaurants,144.970767,-37.793661,"-37.793660925353514, 144.97076722885",3053,https://www.google.com/search?q=Rathdowne+&+Reeves+Cafe+Melbourne,Cafe
726,2021,214,103134,103134,Carlton,Curry in Carlton,192 Elgin Street CARLTON VIC 3053,Takeaway Food Services,144.968164,-37.796982,"-37.79698197719558, 144.9681638731",3053,https://www.google.com/search?q=Curry+in+Carlton+Melbourne,Indian
727,2021,216,103101,103101,Carlton,Cafe Lua,Ground 169 Elgin Street CARLTON VIC 3053,Cafes and Restaurants,144.9692946,-37.79758,"-37.7975804873, 144.9692945956858",3053,https://www.google.com/search?q=Cafe+Lua+Melbourne,Vietnamese
732,2021,217,103710,103710,Carlton,Market Lane Coffee,Part 178 Faraday Street CARLTON VIC 3053,Takeaway Food Services,144.9684899,-37.798574,"-37.79857376164314, 144.96848991734998",3053,https://www.google.com/search?q=Market+Lane+Coffee+Melbourne,Cafe
733,2021,217,106189,106189,Carlton,Trotters Bistro,400 Lygon Street CARLTON VIC 3053,Cafes and Restaurants,144.9677569,-37.797634,"-37.79763355435, 144.96775692995354",3053,https://www.google.com/search?q=Trotters+Bistro+Melbourne,Australian
735,2021,217,106193,106193,Carlton,Brunetti Carlton,"Shop 17-18, 368-384 Lygon Street CARLTON VIC 3053",Cafes and Restaurants,144.9681485,-37.79804,"-37.7980396049, 144.9681484723066",3053,https://www.google.com/search?q=Brunetti+Carlton+Melbourne,Cafe
736,2021,217,106195,106195,Carlton,Sea salt kitchen,364 Lygon Street CARLTON VIC 3053,Cafes and Restaurants,144.9676437,-37.79828,"-37.7982802815, 144.96764370647162",3053,https://www.google.com/search?q=Sea+salt+kitchen+Melbourne,Australian
738,2021,218,103689,103689,Carlton,Shakahari Vegetarian Restaurant,201-203 Faraday Street CARLTON VIC 3053,Cafes and Restaurants,144.9678,-37.799005,"-37.79900450119487, 144.9678004771",3053,https://www.google.com/search?q=Shakahari+Vegetarian+Restaurant+Melbourne,Vegetarian
739,2021,218,106203,106203,Carlton,Lavezzi Gelateria,334 Lygon Street CARLTON VIC 3053,Takeaway Food Services,144.9674929,-37.799164,"-37.7991637631, 144.96749289978698",3053,https://www.google.com/search?q=Lavezzi+Gelateria+Melbourne,Gelato
740,2021,218,106206,106206,Carlton,DOC Espresso,Gnd & Flr1 326 Lygon Street CARLTON VIC 3053,Cafes and Restaurants,144.9674737,-37.799322,"-37.7993215402, 144.96747370103068",3053,https://www.google.com/search?q=DOC+Espresso+Melbourne,Cafe
742,2021,219,108188,108188,Carlton,East Imperial,323 Rathdowne Street CARLTON VIC 3053,Cafes and Restaurants,144.9698815,-37.799183,"-37.7991834824, 144.96988152896057",3053,https://www.google.com/search?q=East+Imperial+Melbourne,Australian
743,2021,223,103070,103070,Carlton,Brew Culture,63 Elgin Street CARLTON VIC 3053,Takeaway Food Services,144.972419,-37.797898,"-37.79789755947331, 144.97241858995",3053,https://www.google.com/search?q=Brew+Culture+Melbourne,Cafe
745,2021,226,108228,108228,Carlton,Osc&r On Rathdowne,180 Rathdowne Street CARLTON VIC 3053,Cafes and Restaurants,144.9711906,-37.795145,"-37.7951445355, 144.97119057573968",3053,https://www.google.com/search?q=Osc&r+On+Rathdowne+Melbourne,Cafe
747,2021,226,108230,108230,Carlton,Jaidieo Thai Cuisine,176 Rathdowne Street CARLTON VIC 3053,Cafes and Restaurants,144.9711753,-37.795232,"-37.7952323664, 144.97117527986072",3053,https://www.google.com/search?q=Jaidieo+Thai+Cuisine+Melbourne,Thai
752,2021,239,107547,107547,Carlton,226 Jubang,Part 226 Pelham Street MELBOURNE VIC 3000,Takeaway Food Services,144.958244,-37.801685,"-37.8016848073996, 144.95824364775",3000,https://www.google.com/search?q=226+Jubang+Melbourne,Korean
753,2021,239,107548,107548,Carlton,Books N Bites Cafe,Ground 224 Pelham Street MELBOURNE VIC 3000,Cafes and Restaurants,144.958328,-37.801695,"-37.80169481369734, 144.9583278934",3000,https://www.google.com/search?q=Books+N+Bites+Cafe+Melbourne,Cafe
757,2021,242,101255,101255,Carlton,The Graduate Union of the University of Melbourne,230-234 Leicester Street CARLTON VIC 3053,Accommodation,144.9616181,-37.801037,"-37.8010367623, 144.96161814789951",3053,https://www.google.com/search?q=The+Graduate+Union+of+the+University+of+Melbourne+Melbourne,Cafe
759,2021,242,104461,104461,Carlton,The Prince Alfred Rooftop and Bar,Prince Alfred Hotel 191-197 Grattan Street CARLTON VIC 3053,"Pubs, Taverns and Bars",144.962209,-37.800458,"-37.800457587011714, 144.96220862045",3053,https://www.google.com/search?q=The+Prince+Alfred+Rooftop+and+Bar+Melbourne,Australian
760,2021,243,104455,104455,Carlton,Mantra Lounge,167 Grattan Street CARLTON VIC 3053,Cafes and Restaurants,144.9632975,-37.800584,"-37.800583513467714, 144.96329750479998",3053,https://www.google.com/search?q=Mantra+Lounge+Melbourne,Vegan and Vegetarian
761,2021,243,109330,109330,Carlton,KFC Carlton,"Shop 2, 743-751 Swanston Street CARLTON VIC 3053",Cafes and Restaurants,144.9636422,-37.80062,"-37.80062003495, 144.9636422194643",3053,https://www.google.com/search?q=KFC+Carlton+Melbourne,Fast Food
762,2021,243,109330,109330,Carlton,Lanzhou Beef Noodle Bar,"Shop 3, 743-751 Swanston Street CARLTON VIC 3053",Cafes and Restaurants,144.9636422,-37.80062,"-37.80062003495, 144.9636422194643",3053,https://www.google.com/search?q=Lanzhou+Beef+Noodle+Bar+Melbourne,Chinese
763,2021,245,104450,104450,Carlton,Rice Bar Not Only Rice,"Shop 1, Ground 121 Grattan Street CARLTON VIC 3053",Cafes and Restaurants,144.9651041,-37.800771,"-37.8007707279, 144.96510407331394",3053,https://www.google.com/search?q=Rice+Bar+Not+Only+Rice+Melbourne,Asian Fusion
764,2021,245,109360,109360,Carlton,Colourful Yunnan Restaurant,680-682 Swanston Street CARLTON VIC 3053,Cafes and Restaurants,144.9642369,-37.800627,"-37.80062734685001, 144.9642368954758",3053,https://www.google.com/search?q=Colourful+Yunnan+Restaurant+Melbourne,Chinese
765,2021,245,109361,109361,Carlton,Xian Famous Foods,678 Swanston Street CARLTON VIC 3053,Cafes and Restaurants,144.9642262,-37.800691,"-37.800690961, 144.9642261569473",3053,https://www.google.com/search?q=Xian+Famous+Foods+Melbourne,Chinese
766,2021,245,110987,110987,Carlton,Subway Carlton,672 Swanston Street CARLTON VIC 3053,Takeaway Food Services,144.9641973,-37.800962,"-37.80096178635, 144.96419727827254",3053,https://www.google.com/search?q=Subway+Carlton+Melbourne,Fast Food
768,2021,246,101693,101693,Carlton,Jokamz,"Unit 2, 164 Cardigan Street CARLTON VIC 3053",Cafes and Restaurants,144.9656262,-37.801326,"-37.8013262219, 144.96562617682207",3053,https://www.google.com/search?q=Jokamz+Melbourne,Korean
771,2021,246,106099,106099,Carlton,Casa Del Gelato,Ground & Part Level 1 165 Lygon Street CARLTON VIC 3053,Takeaway Food Services,144.966431,-37.80187,"-37.80186970945, 144.96643104760852",3053,https://www.google.com/search?q=Casa+Del+Gelato+Melbourne,Gelato
774,2021,246,106103,106103,Carlton,Hwatu,173 Lygon Street CARLTON VIC 3053,Cafes and Restaurants,144.9664775,-37.801606,"-37.80160554845, 144.9664774805496",3053,https://www.google.com/search?q=Hwatu+Melbourne,Korean
775,2021,246,106105,106105,Carlton,Cafe Notturno,177-179 Lygon Street CARLTON VIC 3053,Cafes and Restaurants,144.9665052,-37.801448,"-37.80144757055, 144.96650524933202",3053,https://www.google.com/search?q=Cafe+Notturno+Melbourne,Cafe
776,2021,246,106105,106105,Carlton,Cafe Cavallino,Gnd & Flr1 181-183 Lygon Street CARLTON VIC 3053,Cafes and Restaurants,144.9665052,-37.801448,"-37.80144757055, 144.96650524933202",3053,https://www.google.com/search?q=Cafe+Cavallino+Melbourne,Cafe
779,2021,246,106110,106110,Carlton,Tono On Borsari,201-203 Lygon Street CARLTON VIC 3053,Cafes and Restaurants,144.9666724,-37.800897,"-37.800897164350005, 144.9666724274619",3053,https://www.google.com/search?q=Tono+On+Borsari+Melbourne,Japanese
780,2021,246,106112,106112,Carlton,Seasons Provedore,199 Lygon Street CARLTON VIC 3053,Cafes and Restaurants,144.966659,-37.800967,"-37.80096713465, 144.96665903283798",3053,https://www.google.com/search?q=Seasons+Provedore+Melbourne,Australian
783,2021,247,106233,106233,Carlton,Ziyka Restaurant,234-236 Lygon Street CARLTON VIC 3053,Cafes and Restaurants,144.9672277,-37.801694,"-37.80169377875, 144.96722770853754",3053,https://www.google.com/search?q=Ziyka+Restaurant+Melbourne,Indian
786,2021,247,107557,107557,Carlton,Assembly Store,62 Pelham Street CARLTON VIC 3053,Takeaway Food Services,144.967292,-37.802628,"-37.80262811980231, 144.96729235995",3053,https://www.google.com/search?q=Assembly+Store+Melbourne,Cafe
787,2021,247,107558,107558,Carlton,Assembly Store,60 Pelham Street CARLTON VIC 3053,Takeaway Food Services,144.967336,-37.802621,"-37.8026208315209, 144.96733572915",3053,https://www.google.com/search?q=Assembly+Store+Melbourne,Cafe
789,2021,251,102774,102774,Carlton,Coffee on Drummond,Ground 80 Drummond Street CARLTON VIC 3053,Cafes and Restaurants,144.968279,-37.804807,"-37.8048073124, 144.9682790156816",3053,https://www.google.com/search?q=Coffee+on+Drummond+Melbourne,Cafe
794,2021,252,111059,106250,Carlton,Hakata Gensuke Carlton,126 Lygon Street CARLTON VIC 3053,Cafes and Restaurants,144.966702,-37.804438,"-37.80443770225933, 144.96670202450002",3053,https://www.google.com/search?q=Hakata+Gensuke+Carlton+Melbourne,Japanese
795,2021,252,111060,106250,Carlton,Thai City Restaurant,124 Lygon Street CARLTON VIC 3053,Cafes and Restaurants,144.966702,-37.804438,"-37.80443770225933, 144.96670202450002",3053,https://www.google.com/search?q=Thai+City+Restaurant+Melbourne,Thai
796,2021,252,111061,106250,Carlton,Dong Phuong Vietnamese Cuisine,122 Lygon Street CARLTON VIC 3053,Cafes and Restaurants,144.966702,-37.804438,"-37.80443770225933, 144.96670202450002",3053,https://www.google.com/search?q=Dong+Phuong+Vietnamese+Cuisine+Melbourne,Vietnamese
797,2021,252,111062,106250,Carlton,Lygon Charcoal Grill & Steakhouse,120 Lygon Street CARLTON VIC 3053,Cafes and Restaurants,144.966702,-37.804438,"-37.80443770225933, 144.96670202450002",3053,https://www.google.com/search?q=Lygon+Charcoal+Grill+&+Steakhouse+Melbourne,Steakhouse
799,2021,252,111066,106250,Carlton,Ying Thai 2,110 Lygon Street CARLTON VIC 3053,Cafes and Restaurants,144.966702,-37.804438,"-37.80443770225933, 144.96670202450002",3053,https://www.google.com/search?q=Ying+Thai+2+Melbourne,Thai
800,2021,252,111067,106250,Carlton,Carlton Curry House,108 Lygon Street CARLTON VIC 3053,Cafes and Restaurants,144.966702,-37.804438,"-37.80443770225933, 144.96670202450002",3053,https://www.google.com/search?q=Carlton+Curry+House+Melbourne,Indian
801,2021,252,111069,106250,Carlton,Flavours of Indus,104 Lygon Street CARLTON VIC 3053,Cafes and Restaurants,144.966702,-37.804438,"-37.80443770225933, 144.96670202450002",3053,https://www.google.com/search?q=Flavours+of+Indus+Melbourne,Indian
802,2021,252,574430,106250,Carlton,Il Dolce Freddo,Ground 116 Lygon Street CARLTON VIC 3053,Cafes and Restaurants,144.966702,-37.804438,"-37.80443770225933, 144.96670202450002",3053,https://www.google.com/search?q=Il+Dolce+Freddo+Melbourne,Gelato
806,2021,254,106086,106086,Carlton,Kazuki's Restaurant,121 Lygon Street CARLTON VIC 3053,Cafes and Restaurants,144.9660233,-37.804151,"-37.8041508927, 144.96602329515872",3053,https://www.google.com/search?q=Kazuki's+Restaurant+Melbourne,Australian
